~Version Information
VERS.                      2.0: CWLS Log ASCII Standard - VERSION 2.0
WRAP.                       NO: One line per depth step
~Well Information Block
STRT.FT               -14.0000: START DEPTH
STOP.FT              9405.0000: STOP DEPTH
STEP.FT                 0.5000: STEP
NULL.                -999.2500: NULL VALUE
COMP.          Chesapeake Energy: COMPANY
WELL.          Brand 32 - 8 -2 1H: WELL
FLD.                     Utica: FIELD
LOC.           Lat: 40.487717--Long: -80.733858----: LOCATION
CNTY.                Jefferson: COUNTY
SRVC.      NINE ENERGY SERVICE: SERVICE COMPANY
DATE.          Mon Nov 21 10-28-03 2016: LOG DATE
UWI.              34-081-20629: UNIQUE WELL ID
STAT.                       OH: STATE
~Curve Information Block
DEPT.FT            0 000 00 00: Depth
GR.GAPI                       : Gamma Ray
CCL.                          : Casing Collar Locator
AMP3FT.MV                     : AMP3FT Amplitude
TT3FT.USEC                    : 3FT Travel Time
AMPS1.                        : AMPS1 Amplitude
AMPS2.                        : AMPS2 Amplitude
AMPS3.                        : AMPS3 Amplitude
AMPS4.                        : AMPS4 Amplitude
AMPS5.                        : AMPS5 Amplitude
AMPS6.                        : AMPS6 Amplitude
AMPS7.                        : AMPS7 Amplitude
AMPS8.                        : AMPS8 Amplitude
Temp.DEGF                     : Integral Temperature
LTEN.LB                       : Surface Line Tension
ADPTH.FT                      : Actual Depth
~Parameter Information Block
TDEPTH.FT               0.0000: Total Depth
~A  Depth        GR         CCL        AMP3FT      TT3FT       AMPS1       AMPS2       AMPS3       AMPS4       AMPS5       AMPS6       AMPS7       AMPS8        Temp        LTEN       ADPTH    
# ...
  6244.0000     13.6479      1.0000     26.6157    265.0943     37.8178     34.0436     32.2131     33.1831     34.9942     39.6231     43.5636     43.2976    138.5975    973.0770   6243.9917
  6244.5000     10.6716      0.0000     27.9391    265.0780     38.8356     34.7998     33.4041     35.1008     37.7759     43.2358     46.5110     45.1187    138.4786    973.0770   6244.4917
  6245.0000     12.2988      0.0000     29.2978    265.0287     40.4557     36.1956     34.4537     36.5177     40.0860     46.4059     49.5603     47.1248    138.6633    973.0770   6244.9917
  6245.5000     14.5579      0.0000     29.6743    264.9449     41.1499     36.6636     34.0833     35.7871     40.2326     47.4214     50.8547     48.0238    138.6334    958.8601   6245.4917
  6246.0000     13.8673      0.0000     28.7980    265.0628     39.9925     35.8047     32.9214     34.0266     38.5389     45.5583     49.0170     46.5087    138.5762    974.6567   6246.0000
  6246.5000     11.3960      0.0000     28.4405    265.1672     39.4167     35.5406     33.1450     34.0030     37.6280     43.8964     47.4139     45.5279    138.4326    968.3381   6246.5000
  6247.0000      8.2473      0.0000     28.5131    265.1218     39.7760     35.8011     33.8598     34.8956     37.7946     43.2080     46.9994     46.0288    138.7089    952.5414   6247.0000
  6247.5000      8.1564      0.0000     28.3116    265.0397     40.2951     35.6037     33.6857     35.0640     37.5263     42.5015     46.8140     46.6777    138.5353    960.4398   6247.5000
  6248.0000     10.5364      0.0000     28.7160    265.0850     41.0879     36.3833     34.3827     35.6797     37.4813     42.3403     47.4216     47.6214    138.4265    976.2364   6247.9917
  6248.5000     10.6593      0.0000     30.6873    264.9477     43.6806     39.3682     37.5355     38.5913     40.0426     45.3087     51.2828     50.9455    138.8543    974.6567   6248.4917
  6249.0000      9.4889      0.0000     32.7279    264.7646     46.2341     42.4606     41.0268     42.1881     43.7870     49.0243     55.3214     54.1724    138.5534    976.2364   6249.0000
  6249.5000      9.0682      0.0000     34.7202    264.5901     48.6103     45.1936     43.9352     45.3548     47.1033     52.2894     58.5343     56.8318    138.6922    968.3381   6249.4917
  6250.0000     11.0970      0.0000     37.2510    264.2990     51.7704     48.3005     46.9458     48.5715     50.7084     56.5384     62.9122     60.2696    138.5103    977.8160   6249.9917
  6250.5000     16.6620      0.0000     38.9558    264.2180     53.3819     49.8419     48.8640     50.8901     53.2685     59.7800     65.9642     62.4827    138.7280    957.2804   6250.4917
  6251.0000     23.1506      0.0000     38.1972    264.4798     51.7007     48.3964     47.9936     50.4364     53.0402     59.5842     65.0284     61.1737    138.4459    974.6567   6250.9917
  6251.5000     25.3316      0.0000     37.2781    264.6127     49.9258     47.1193     47.0204     49.8505     52.7895     59.1015     63.6537     59.3187    138.2216    979.3957   6251.4917
  6252.0000     21.1968      0.0000     36.2056    264.8487     48.0317     45.6798     45.8127     48.5237     51.4743     57.9483     62.2667     57.1256    138.6297    980.9753   6252.0000
  6252.5000     14.3447      0.0000     32.9127    265.9919     43.0464     41.0134     41.4868     44.1684     47.1058     53.5571     57.4845     51.4159    138.8100    984.1347   6252.5000
  6253.0000     11.0260      0.0000     27.9113    268.1512     35.9441     34.3221     34.9947     37.6810     40.7230     46.3543     49.0500     43.2880    138.9628    979.3957   6253.0000
  6253.5000      9.4730      0.0000     23.0918    269.6330     29.8168     28.9270     29.9584     31.9947     34.0089     37.3643     38.8566     35.0690    138.5970    962.0194   6253.5000
  6254.0000      7.6250      0.0000     21.6490    269.9248     29.0886     27.4798     27.9338     29.3639     30.8850     34.0654     36.0617     33.5552    138.6357    969.9177   6253.9917
  6254.5000      9.0201      0.0000     20.3270    270.3328     28.1765     25.6744     25.1643     26.0639     27.7119     31.5184     34.3147     32.6062    138.7021    962.0194   6254.4917
  6255.0000     16.3757      0.0000     18.1635    270.9462     25.4449     23.0593     21.9680     22.6411     24.3953     28.0949     30.8186     29.5563    138.5839    958.8601   6254.9917
  6255.5000     24.6026      0.0000     18.8918    270.4801     26.6691     24.0542     22.4499     23.0123     25.0123     29.1822     32.1361     30.8673    138.6964    969.9177   6255.4917
  6256.0000     24.4127      0.0000     21.5283    268.0808     30.5589     27.5987     25.9389     26.4384     28.5588     33.5812     37.4049     35.3622    138.7083    977.8160   6255.9917
  6256.5000     19.1915      0.0000     21.7716    266.3383     30.3642     27.8934     26.8788     27.6759     29.5149     34.1882     37.8394     35.5930    138.7985    977.8160   6256.5000
  6257.0000     14.3371      0.0000     21.0239    265.7707     28.5873     26.3398     25.9507     27.1510     28.8103     32.8672     36.2441     34.1431    138.7786    979.3957   6256.9917
  6257.5000     13.1645      0.0000     20.2905    265.8998     27.6863     25.0656     24.5180     26.0282     27.9607     31.5369     34.6768     33.1692    138.7229    958.8601   6257.5000
  6258.0000     16.2432      0.0000     18.9576    266.6365     26.2044     23.1059     21.9845     23.7740     26.0236     29.1237     32.2997     31.5836    138.6032    979.3957   6257.9917
  6258.5000     18.1255      0.0000     16.6969    272.8410     23.0907     20.0800     18.9157     20.2873     22.0427     24.6549     27.6684     27.5789    138.5169    979.3957   6258.5000
  6259.0000     16.9071      0.0000     13.9751    291.8387     19.3920     17.1459     16.4151     17.0297     17.8047     19.8088     22.5225     22.7095    138.6896    976.2364   6258.9917
  6259.5000     17.3615      0.0000     11.5598    304.3015     16.3543     14.4951     14.0226     14.3348     14.8090     16.6122     18.7383     18.7546    138.7830    955.7007   6259.4917
  6260.0000     16.4905      0.0000     10.0541    305.3637     14.0919     12.5167     12.3480     12.9739     13.4205     15.1355     17.0532     16.6620    138.3892    966.7584   6260.0000
  6260.5000     14.9083      0.0000      9.7681    305.1668     13.0312     11.9590     12.1810     13.0638     13.3781     14.7733     16.6703     16.0082    138.7697    982.5551   6260.5000
  6261.0000     14.1836      0.0000     10.7586    303.8370     14.1882     13.0420     13.2995     14.2512     14.4698     16.2301     18.4662     17.5713    138.6994    960.4398   6260.9917
  6261.5000     14.3962      0.0000     13.3543    291.4404     18.2756     16.5261     16.7377     17.8682     18.1374     20.2821     23.4653     22.7173    138.4594    952.5414   6261.4917
  6262.0000     17.9930      0.0000     18.5381    271.9889     25.8572     23.2771     23.3408     24.6972     25.2760     28.0005     32.4370     31.6459    138.7766    971.4974   6262.0000
  6262.5000     18.7361      0.0000     24.5390    265.3135     33.7934     30.5397     30.5379     32.2366     33.3973     37.0178     42.2276     40.8517    138.7515    971.4974   6262.4917
  6263.0000     15.3525      0.0000     28.3866    264.7252     38.6352     35.2321     35.1338     37.4470     39.5976     43.9614     48.7178     46.0720    138.8037    969.9177   6263.0000
  6263.5000     19.6800      0.0000     29.4432    264.8509     39.9678     36.0300     35.4869     38.1420     41.4848     46.7048     50.9509     47.6499    138.7740    969.9177   6263.5000
  6264.0000     26.8339      0.0000     27.0389    265.2208     37.4395     32.2591     31.2516     34.0034     38.3370     44.5631     49.0507     45.8906    138.6257    969.9177   6263.9917
  6264.5000     22.4463      0.0000     22.1079    266.3559     32.2300     26.4675     24.6323     26.6453     31.0669     36.9313     42.1126     40.4164    138.8704    969.9177   6264.5000
