~Version Information
VERS.                      2.0: CWLS Log ASCII Standard - VERSION 2.0
WRAP.                       NO: One line per depth step
~Well Information Block
STRT.FT               -14.0000: START DEPTH
STOP.FT              9405.0000: STOP DEPTH
STEP.FT                 0.5000: STEP
NULL.                -999.2500: NULL VALUE
COMP.          Chesapeake Energy: COMPANY
WELL.          Brand 32 - 8 -2 1H: WELL
FLD.                     Utica: FIELD
LOC.           Lat: 40.487717--Long: -80.733858----: LOCATION
CNTY.                Jefferson: COUNTY
SRVC.      NINE ENERGY SERVICE: SERVICE COMPANY
DATE.          Mon Nov 21 10-28-03 2016: LOG DATE
UWI.              34-081-20629: UNIQUE WELL ID
STAT.                       OH: STATE
~Curve Information Block
DEPT.FT            0 000 00 00: Depth
GR.GAPI                       : Gamma Ray
CCL.                          : Casing Collar Locator
AMP3FT.MV                     : AMP3FT Amplitude
TT3FT.USEC                    : 3FT Travel Time
AMPS1.                        : AMPS1 Amplitude
AMPS2.                        : AMPS2 Amplitude
AMPS3.                        : AMPS3 Amplitude
AMPS4.                        : AMPS4 Amplitude
AMPS5.                        : AMPS5 Amplitude
AMPS6.                        : AMPS6 Amplitude
AMPS7.                        : AMPS7 Amplitude
AMPS8.                        : AMPS8 Amplitude
Temp.DEGF                     : Integral Temperature
LTEN.LB                       : Surface Line Tension
ADPTH.FT                      : Actual Depth
~Parameter Information Block
TDEPTH.FT               0.0000: Total Depth
~A  Depth        GR         CCL        AMP3FT      TT3FT       AMPS1       AMPS2       AMPS3       AMPS4       AMPS5       AMPS6       AMPS7       AMPS8        Temp        LTEN       ADPTH    
# ...
  7504.0000     67.0219      0.0000     29.4168    262.8104     38.9660     35.1001     33.6047     35.7175     41.5901     49.9803     53.2286     47.7240    152.5889   1156.3180   7504.0000
  7504.5000     56.5953      0.0000     30.6122    262.4700     42.4267     37.8948     35.4424     36.8743     41.7130     49.7599     54.2305     50.7023    152.7192   1154.7383   7504.4917
  7505.0000     50.8926      0.0000     30.7596    262.3528     43.8343     38.3727     35.4401     36.0428     40.4983     48.9738     54.8151     52.2563    152.4469   1153.1587   7504.9917
  7505.5000     53.1570      0.0000     30.1813    262.6069     42.7870     37.0490     34.2033     34.8829     39.7983     49.4504     55.4124     51.9297    152.6915   1153.1587   7505.4917
  7506.0000     55.5391      0.0000     30.5875    262.7693     42.7859     37.1360     34.5106     35.7496     41.4860     52.1808     56.9297     52.0115    152.6664   1153.1587   7506.0000
  7506.5000     60.5402      0.0000     31.2697    262.6404     42.4725     37.5952     35.8176     37.5515     43.6916     54.5341     57.7136     51.4625    152.7699   1153.1587   7506.4917
  7507.0000     70.6533      0.0000     31.5381    262.2852     41.7317     37.4569     36.0470     38.0541     44.7487     55.2825     57.4692     50.3445    152.8204   1151.5790   7506.9917
  7507.5000     74.3942      0.0000     30.7813    262.1001     40.7859     37.0521     35.3393     37.1655     44.0309     53.7259     55.3847     48.5349    152.8699   1151.5790   7507.4917
  7508.0000     69.2702      0.0000     28.5826    262.2408     39.4035     36.1284     33.7393     34.5276     39.9982     48.4829     50.2828     45.1398    152.8374   1173.6942   7507.9917
  7508.5000     62.0107      0.0000     26.4534    262.4834     38.0476     34.8721     32.0402     32.0245     35.8760     44.0829     46.3830     42.3099    152.8606   1178.4332   7508.5000
  7509.0000     60.5131      0.0000     25.7809    262.6536     36.4613     33.3204     31.1403     31.6905     35.6785     44.3916     46.5194     41.4035    152.6658   1173.6942   7508.9917
  7509.5000     66.3080      0.0000     25.9873    262.7279     35.1508     32.0007     30.3369     31.6374     36.7369     46.3272     48.3332     41.5359    153.0873   1154.7383   7509.4917
  7510.0000     68.0334      0.0000     27.2184    262.5958     35.3605     32.0927     31.0224     33.0048     38.5165     48.5194     51.1523     43.6039    152.7348   1175.2739   7509.9917
  7510.5000     68.9703      0.0000     29.5055    262.3617     37.1795     33.9209     33.6095     36.1879     41.7807     52.0921     55.2222     47.3188    152.9499   1164.2163   7510.5000
  7511.0000     65.4564      0.0000     31.9593    262.3011     40.0494     36.3121     36.1860     39.1740     45.4725     55.8698     59.4857     51.4840    152.8070   1151.5790   7510.9917
  7511.5000     55.4194      0.0000     33.8393    262.3482     43.4515     38.6938     38.5112     41.6267     48.3633     58.1948     62.2156     54.6301    152.8346   1149.9993   7511.4917
  7512.0000     44.7255      0.0000     33.6783    262.3447     45.9455     40.5302     39.1216     41.3385     47.3938     56.7069     61.3088     55.3292    152.6102   1170.5349   7511.9917
  7512.5000     41.1409      0.0000     31.4688    262.4130     45.1655     39.7988     36.7945     37.6855     43.0635     51.8462     56.7612     52.5965    152.5263   1176.8536   7512.4917
  7513.0000     48.9489      0.0000     29.4693    262.5366     42.7481     38.1869     35.1349     35.3189     39.8096     47.5896     52.3278     48.8367    152.7833   1176.8536   7512.9917
  7513.5000     59.3186      0.0000     28.4673    262.6258     40.1461     36.3807     34.0391     34.4447     38.3349     46.3133     50.7418     46.4153    152.9370   1162.6366   7513.4917
  7514.0000     63.0026      0.0000     27.9692    262.8034     37.4218     33.8801     32.8576     34.3996     38.9940     48.1199     51.7717     45.4092    152.5576   1156.3180   7514.0000
  7514.5000     60.5196      0.0000     28.4389    262.6789     36.1860     33.2108     33.3887     36.0930     41.4794     50.4402     53.0978     45.5684    152.7659   1156.3180   7514.5000
  7515.0000     54.8211      0.0000     29.8032    262.1925     37.2534     34.6361     35.3833     39.0525     44.3609     52.8606     55.3439     47.4642    152.8056   1154.7383   7515.0000
  7515.5000     50.7826      0.0000     31.7205    261.7952     40.5473     37.5535     38.2435     41.9148     46.9635     55.5387     59.1886     51.3756    152.4633   1154.7383   7515.5000
  7516.0000     48.8306      0.0000     33.7720    261.5208     44.3941     41.3282     42.0754     44.8747     48.7975     56.8105     62.0609     54.9677    152.9996   1162.6366   7515.9917
  7516.5000     55.7191      0.0000     34.0095    261.3425     46.1104     43.8218     44.6258     46.4132     48.1611     54.8881     61.4888     55.6889    152.8707   1187.9113   7516.4917
  7517.0000     66.1823      0.0000     32.8824    261.3882     45.6462     43.8847     44.2636     45.6445     46.4952     52.6145     59.8569     54.8590    152.8409   1178.4332   7516.9917
  7517.5000     72.5185      0.0000     32.3057    261.2721     44.6853     42.5510     42.8691     44.5171     45.2645     52.0794     60.1695     55.0893    153.0547   1167.3756   7517.4917
  7518.0000     70.8988      0.0000     31.6306    261.3751     43.4971     40.2880     40.2428     41.9792     44.0741     52.9546     61.7684     55.7380    152.8766   1178.4332   7517.9917
  7518.5000     65.9973      0.0000     31.7089    261.5238     43.0272     38.6428     38.1028     39.9378     43.8966     55.1358     64.0009     56.7366    152.6642   1192.6503   7518.5000
  7519.0000     62.5380      0.0000     32.7291    261.5056     43.3178     38.1229     37.5278     40.2838     45.5973     58.1297     66.2279     57.9043    152.7939   1176.8536   7519.0000
  7519.5000     53.4907      0.0000     35.1515    261.3768     45.2793     40.7329     40.7008     44.2884     50.3511     61.9997     68.6556     59.6321    152.7175   1168.9553   7519.5000
  7520.0000     44.5101      0.0000     37.9735    261.2017     48.4541     45.1444     46.3044     50.0253     55.6028     65.0460     70.0329     61.1889    152.8461   1168.9553   7520.0000
  7520.5000     53.7042      0.0000     39.2383    261.0014     49.0500     47.7063     50.7793     55.0615     58.9221     65.1410     68.6097     60.0629    152.8444   1178.4332   7520.5000
  7521.0000     65.0572      0.0000     37.2291    261.0828     47.1526     46.4303     49.8372     54.0313     56.0806     60.6143     65.0435     57.7620    152.8785   1173.6942   7520.9917
  7521.5000     58.4200      0.0000     34.3683    261.2661     46.1018     43.7763     45.1925     48.1290     49.7591     55.9840     63.3779     57.2295    152.6274   1164.2163   7521.5000
  7522.0000     50.4779      0.0000     33.4642    261.3489     45.1332     41.9404     42.0875     44.5329     47.4184     56.4716     64.9251     57.3260    152.5602   1162.6366   7522.0000
  7522.5000     48.1790      0.0000     34.2538    261.3225     45.1426     41.9417     41.7798     44.2730     48.5560     59.7045     67.5322     58.0227    152.8696   1154.7383   7522.4917
  7523.0000     44.0853      0.0000     35.3986    261.2155     45.9234     42.8049     42.9794     45.8117     50.8297     62.9407     69.8452     59.2876    152.7680   1153.1587   7523.0000
  7523.5000     42.8392      0.0000     37.7236    261.1797     48.3209     45.5054     45.8606     48.6774     53.8701     66.6929     72.9208     61.9635    152.9806   1151.5790   7523.5000
  7524.0000     40.8227      0.0000     40.6323    261.1878     51.2701     48.6041     49.5107     52.3334     58.6801     72.2822     77.0664     64.8916    152.9009   1151.5790   7524.0000
  7524.5000     41.2304      0.0000     43.2800    261.2104     54.3755     51.5625     52.7206     55.8786     63.5982     77.6893     81.2080     67.9992    152.8820   1168.9553   7524.5000
