~Version Information
VERS.                      2.0: CWLS Log ASCII Standard - VERSION 2.0
WRAP.                       NO: One line per depth step
~Well Information Block
STRT.FT               -14.0000: START DEPTH
STOP.FT              9405.0000: STOP DEPTH
STEP.FT                 0.5000: STEP
NULL.                -999.2500: NULL VALUE
COMP.          Chesapeake Energy: COMPANY
WELL.          Brand 32 - 8 -2 1H: WELL
FLD.                     Utica: FIELD
LOC.           Lat: 40.487717--Long: -80.733858----: LOCATION
CNTY.                Jefferson: COUNTY
SRVC.      NINE ENERGY SERVICE: SERVICE COMPANY
DATE.          Mon Nov 21 10-28-03 2016: LOG DATE
UWI.              34-081-20629: UNIQUE WELL ID
STAT.                       OH: STATE
~Curve Information Block
DEPT.FT            0 000 00 00: Depth
GR.GAPI                       : Gamma Ray
CCL.                          : Casing Collar Locator
AMP3FT.MV                     : AMP3FT Amplitude
TT3FT.USEC                    : 3FT Travel Time
AMPS1.                        : AMPS1 Amplitude
AMPS2.                        : AMPS2 Amplitude
AMPS3.                        : AMPS3 Amplitude
AMPS4.                        : AMPS4 Amplitude
AMPS5.                        : AMPS5 Amplitude
AMPS6.                        : AMPS6 Amplitude
AMPS7.                        : AMPS7 Amplitude
AMPS8.                        : AMPS8 Amplitude
Temp.DEGF                     : Integral Temperature
LTEN.LB                       : Surface Line Tension
ADPTH.FT                      : Actual Depth
~Parameter Information Block
TDEPTH.FT               0.0000: Total Depth
~A  Depth        GR         CCL        AMP3FT      TT3FT       AMPS1       AMPS2       AMPS3       AMPS4       AMPS5       AMPS6       AMPS7       AMPS8        Temp        LTEN       ADPTH    
# ...
  6874.0000     56.2367      0.0000     31.1632    263.2714     47.0184     42.4040     40.6340     40.2626     39.5620     42.8746     49.4972     52.0918    143.4932   1067.8568   6873.9917
  6874.5000     48.9932      0.0000     30.4236    263.5084     46.4026     41.3928     39.2655     38.6543     38.5564     42.3652     49.2472     51.3233    143.5356   1067.8568   6874.4917
  6875.0000     42.9676      0.0000     29.6040    263.6201     45.3745     40.5126     38.4831     38.0009     37.9118     41.5062     48.0094     49.7856    143.5364   1067.8568   6874.9917
  6875.5000     45.8093      0.0000     28.9204    263.4898     43.6565     38.7862     37.2695     37.9125     37.7823     40.2211     45.8489     47.8404    143.5138   1066.2772   6875.4917
  6876.0000     60.4406      0.0000     27.9500    263.5932     42.2844     36.9818     35.3628     36.5309     36.9332     38.8038     43.9396     46.5357    143.4640   1067.8568   6875.9917
  6876.5000     69.1329      0.0000     27.1734    263.8930     41.8300     36.6225     34.5884     34.7647     35.1510     37.4443     42.8845     45.8215    143.4355   1066.2772   6876.4917
  6877.0000     74.7344      0.0000     27.2727    263.8772     42.1011     36.8203     34.7196     34.8647     34.9565     36.9890     42.5344     46.2362    143.2119   1069.4365   6876.9917
  6877.5000     77.3715      0.0000     27.4061    263.7642     42.4116     36.8169     34.5815     35.3934     35.4168     37.0920     42.3888     46.7451    143.7156   1063.1178   6877.4917
  6878.0000     70.4556      0.0000     26.4108    263.8426     41.1237     36.1457     33.7679     34.1664     33.9390     35.3761     40.6169     44.8016    143.4374   1050.4806   6877.9917
  6878.5000     70.3626      0.0000     24.8377    264.1151     38.7481     34.5421     31.5835     31.4215     31.3015     32.8083     38.0220     41.5905    143.5155   1052.0602   6878.5000
  6879.0000     86.7213      0.0000     23.4744    264.4234     35.9596     32.0076     29.1915     29.1921     29.4782     31.6969     36.6453     38.9863    143.4058   1074.1755   6878.9917
  6879.5000     97.1873      0.0000     22.3721    264.6340     33.4336     29.2845     27.0922     27.4592     28.1475     31.7248     36.7047     37.5568    143.4356   1074.1755   6879.5000
  6880.0000     84.9077      0.0000     21.8357    264.6198     31.7166     27.4111     25.7452     26.6636     27.7469     31.9908     36.7910     36.8636    143.5580   1074.1755   6880.0000
  6880.5000     65.3184      0.0000     21.5699    264.5258     30.8208     26.8386     25.4736     26.6715     27.6876     31.1515     35.5931     35.7307    143.4813   1055.2195   6880.4917
  6881.0000     57.1175      0.0000     21.7355    264.2583     31.5175     28.0558     26.5292     26.9938     27.5807     30.6035     35.0271     35.6246    143.5679   1072.5958   6881.0000
  6881.5000     58.8865      0.0000     22.7089    264.1197     33.0060     29.6131     28.1306     28.5552     28.9934     31.9935     36.4585     37.2509    143.5480   1072.5958   6881.5000
  6882.0000     65.1224      0.0000     23.6297    264.0714     34.0146     30.9539     29.8538     30.6364     30.5768     33.2086     37.3246     38.3348    143.4875   1053.6399   6881.9917
  6882.5000     66.4691      0.0000     23.8895    264.0330     34.7548     32.0549     30.8678     31.4353     30.8345     33.5946     37.5844     38.6292    143.5034   1048.9009   6882.5000
  6883.0000     61.2776      0.0000     24.2403    263.9799     35.7119     32.6012     31.2068     31.4841     30.9063     34.1641     38.6316     39.7746    143.4084   1063.1178   6883.0000
  6883.5000     55.1110      0.0000     24.6609    263.8965     36.6328     32.8637     31.2480     31.3683     31.1968     34.9043     39.7965     40.9250    143.6230   1071.0161   6883.5000
  6884.0000     56.5412      0.0000     24.7867    263.7928     37.3396     33.5450     31.4521     31.2374     30.9925     34.2354     39.3731     41.2050    143.6130   1069.4365   6883.9834
  6884.5000     56.7198      0.0000     24.7303    263.7127     37.1027     33.3022     31.5565     31.3280     31.2539     34.2293     39.1314     40.8864    143.4759   1067.8568   6884.5000
  6885.0000     54.2649      0.0000     24.2711    263.8282     35.6652     31.7397     30.5477     31.2061     31.8722     34.7687     39.0274     39.9700    143.5145   1066.2772   6885.0000
  6885.5000     54.1105      0.0000     22.9585    264.0125     33.9311     30.0243     29.0074     30.1560     30.8307     32.9622     36.7804     37.5939    143.4742   1067.8568   6885.5000
  6886.0000     56.5470      0.0000     20.3524    264.4780     31.1939     27.3402     25.9389     26.7797     27.2335     28.4013     31.5975     32.9088    143.6436   1064.6975   6886.0000
  6886.5000     60.6532      0.0000     17.2213    265.5258     26.3850     23.2367     21.6460     22.3634     22.8968     23.4970     26.0750     27.6332    143.6264   1064.6975   6886.5000
  6887.0000     68.7259      0.0000     15.0272    266.7128     22.7268     20.4683     18.9084     19.7464     19.8885     20.2676     22.2390     23.7434    143.4939   1063.1178   6887.0000
  6887.5000     75.8881      0.0000     14.2490    267.3374     21.1678     19.0782     17.7406     18.0552     18.1045     19.5800     21.7009     22.6216    143.6436   1063.1178   6887.4917
  6888.0000     70.6013      0.0000     14.1733    267.4265     20.5893     18.2974     17.2770     17.3217     17.6059     19.9137     22.3892     22.8663    143.4981   1063.1178   6887.9917
  6888.5000     65.6378      0.0000     14.9006    266.8921     21.0275     18.6884     17.8085     18.0135     18.4693     20.9147     23.6900     23.9490    143.3561   1061.5382   6888.5000
  6889.0000     64.5353      0.0000     16.5342    265.9354     23.2563     20.8080     19.7458     19.8103     20.3805     23.3112     26.6815     26.5932    143.4732   1063.1178   6889.0000
  6889.5000     68.7843      0.0000     18.7209    265.0963     27.0095     24.3431     22.8598     22.8829     23.4433     26.5409     30.3638     30.4945    143.6564   1061.5382   6889.4917
  6890.0000     74.5498      0.0000     20.2385    264.7551     29.2104     26.5910     25.0090     25.5901     26.3951     28.9077     32.2404     32.5129    143.8083   1059.9585   6890.0000
  6890.5000     69.5036      0.0000     20.2817    264.7137     29.1067     26.8479     25.3814     26.4259     27.2634     28.8497     31.3080     31.6733    143.6028   1058.3789   6890.4917
  6891.0000     60.1077      0.0000     18.8853    264.9626     27.3634     25.5718     24.5627     25.5059     25.6614     26.5183     28.3985     28.7405    143.4001   1058.3789   6890.9917
  6891.5000     58.0693      0.0000     17.4232    265.3034     24.8793     23.4064     23.1315     23.6926     23.7526     24.6975     26.8471     26.7855    143.5685   1064.6975   6891.4917
  6892.0000     61.1499      0.0000     16.8100    265.5573     23.6771     21.4863     21.4521     22.3436     23.0759     24.8234     27.2884     26.8608    143.8372   1053.6399   6891.9917
  6892.5000     66.3278      0.0000     17.1778    265.4523     24.3979     21.1224     20.8673     22.4366     23.6316     25.9219     28.4760     28.1531    143.4480   1047.3212   6892.4917
  6893.0000     64.5137      0.0000     17.8965    265.0867     25.8221     22.1514     21.5776     22.8848     23.9569     26.3051     29.1542     29.4305    143.7417   1064.6975   6892.9917
  6893.5000     62.9441      0.0000     19.3269    264.5899     28.2074     24.4758     23.4793     24.2621     24.9564     27.1834     30.7260     31.8750    143.6572   1066.2772   6893.5000
  6894.0000     73.5831      0.0000     21.9393    264.2677     32.2040     28.2101     26.6470     27.5626     27.8399     30.1718     34.1913     36.2877    143.7419   1067.8568   6893.9917
  6894.5000     80.3129      0.0000     24.4174    263.8929     36.0559     32.3845     30.5350     31.3008     31.0308     33.0059     37.2996     39.8656    143.6059   1044.1619   6894.4917
