~Version Information
VERS.                      2.0: CWLS Log ASCII Standard - VERSION 2.0
WRAP.                       NO: One line per depth step
~Well Information Block
STRT.FT               -14.0000: START DEPTH
STOP.FT              9405.0000: STOP DEPTH
STEP.FT                 0.5000: STEP
NULL.                -999.2500: NULL VALUE
COMP.          Chesapeake Energy: COMPANY
WELL.          Brand 32 - 8 -2 1H: WELL
FLD.                     Utica: FIELD
LOC.           Lat: 40.487717--Long: -80.733858----: LOCATION
CNTY.                Jefferson: COUNTY
SRVC.      NINE ENERGY SERVICE: SERVICE COMPANY
DATE.          Mon Nov 21 10-28-03 2016: LOG DATE
UWI.              34-081-20629: UNIQUE WELL ID
STAT.                       OH: STATE
~Curve Information Block
DEPT.FT            0 000 00 00: Depth
GR.GAPI                       : Gamma Ray
CCL.                          : Casing Collar Locator
AMP3FT.MV                     : AMP3FT Amplitude
TT3FT.USEC                    : 3FT Travel Time
AMPS1.                        : AMPS1 Amplitude
AMPS2.                        : AMPS2 Amplitude
AMPS3.                        : AMPS3 Amplitude
AMPS4.                        : AMPS4 Amplitude
AMPS5.                        : AMPS5 Amplitude
AMPS6.                        : AMPS6 Amplitude
AMPS7.                        : AMPS7 Amplitude
AMPS8.                        : AMPS8 Amplitude
Temp.DEGF                     : Integral Temperature
LTEN.LB                       : Surface Line Tension
ADPTH.FT                      : Actual Depth
~Parameter Information Block
TDEPTH.FT               0.0000: Total Depth
~A  Depth        GR         CCL        AMP3FT      TT3FT       AMPS1       AMPS2       AMPS3       AMPS4       AMPS5       AMPS6       AMPS7       AMPS8        Temp        LTEN       ADPTH    
# ...
  8743.0000     45.9015      0.0000      4.1201    306.8986      6.3266      4.5405      4.1936      4.3723      4.4926      5.5174      7.1182      7.6104    171.0849   1361.6742   8743.0000
  8743.5000     53.9669      0.0000      3.8668    307.8088      5.9109      4.1996      3.6799      3.8288      3.7302      4.8088      6.1912      6.7961    171.0876   1339.5588   8743.5000
  8744.0000     52.3106      0.0000      3.6241    308.8232      5.6550      3.8728      3.3018      3.2842      3.3552      4.3798      5.6997      6.2491    170.9098   1353.7759   8744.0000
  8744.5000     49.4186      0.0000      3.5688    311.3954      5.0053      3.2885      2.7782      2.9845      3.2702      4.1835      5.0827      5.5521    171.0149   1345.8776   8744.5000
  8745.0000     46.9532      0.0000      3.2281    319.6910      4.5891      3.0272      2.6029      3.1208      3.4079      3.8485      4.3712      5.1049    170.9447   1345.8776   8744.9912
  8745.5000     47.3880      0.0000      3.2628    319.0828      5.0446      3.4275      3.0152      3.4430      3.7135      3.9741      4.9564      5.6112    171.1592   1339.5588   8745.5000
  8746.0000     53.6186      0.0000      3.6176    310.7780      5.2573      3.7274      3.4417      3.9165      4.0168      4.5165      5.7490      6.0895    171.0269   1342.7183   8746.0000
  8746.5000     55.2783      0.0000      4.0203    307.8552      5.8303      4.2425      4.0990      4.8542      4.8700      5.5112      6.7479      7.0214    171.1763   1349.0369   8746.5000
  8747.0000     51.1380      0.0000      4.5258    306.4172      7.2435      5.2045      4.8079      5.3984      5.7594      6.3019      7.6052      8.2087    170.7102   1349.0369   8746.9912
  8747.5000     46.7896      0.0000      5.0246    306.0378      8.2957      6.1905      5.6638      5.9864      6.7163      7.1111      8.5592      9.4507    170.8924   1349.0369   8747.4912
  8748.0000     49.1654      0.0000      5.9988    306.1203      9.0844      7.1349      6.8309      7.0941      7.6487      8.1688      9.5349     10.3495    171.1708   1350.6166   8747.9912
  8748.5000     55.2745      0.0000      6.5558    305.8961      9.9646      7.6734      7.0814      7.3201      7.7297      8.7073     10.2750     11.0396    171.2407   1350.6166   8748.4912
  8749.0000     62.6598      0.0000      6.0803    305.6008      9.4221      6.7989      6.1927      6.6980      7.0144      8.3402     10.1336     10.6903    171.0241   1350.6166   8748.9912
  8749.5000     70.1343      0.0000      5.5170    305.4402      8.4602      5.9933      5.4278      6.0673      6.3544      7.9261      9.7483     10.1436    170.8372   1349.0369   8749.4912
  8750.0000     67.1936      0.0000      4.9083    305.8182      7.5217      5.3242      4.9168      5.2970      5.4438      6.7976      8.7979      9.2751    171.2576   1349.0369   8750.0000
  8750.5000     55.7192      0.0000      4.4480    307.3981      6.4760      4.7245      4.2954      4.5436      4.9366      5.7229      7.6383      7.9826    171.3414   1350.6166   8750.4912
  8751.0000     49.0617      0.0000      3.9305    309.1496      5.4791      3.7181      3.4334      3.8877      4.5052      4.8115      6.3646      6.5821    171.1996   1349.0369   8750.9912
  8751.5000     54.2739      0.0000      3.1385    311.1194      4.4105      2.7596      2.5367      2.9823      3.4805      3.9205      4.8041      4.9465    171.0117   1345.8776   8751.4834
  8752.0000     61.8264      0.0000      2.6384    311.9760      3.9644      2.4321      2.2747      2.4059      2.6252      3.1375      3.5117      4.0012    171.1033   1337.9792   8751.9912
  8752.5000     63.6181      0.0000      2.8699    313.7004      4.2864      2.6923      2.6700      2.7992      2.8583      3.6222      4.0238      4.5221    171.1602   1347.4572   8752.5000
  8753.0000     68.5433      0.0000      3.1224    322.0513      4.0792      2.7324      2.4857      2.8165      2.8886      3.8091      4.4355      4.5708    171.2034   1347.4572   8752.9912
  8753.5000     76.0330      0.0000      2.8625    322.2365      3.6393      2.3466      2.2869      2.5922      2.7947      3.3656      4.1117      4.0619    171.3325   1341.1385   8753.5000
  8754.0000     73.8777      0.0000      2.6597    315.1422      3.9692      2.4455      2.2761      2.3905      2.5682      3.0708      4.2307      4.2273    171.2388   1350.6166   8753.9912
  8754.5000     68.1087      0.0000      3.2634    320.4898      5.1598      3.4229      2.8079      2.9364      3.2993      4.4033      6.0443      6.0581    171.1944   1356.9352   8754.5000
  8755.0000     65.2161      0.0000      3.8104    318.8375      5.7949      3.7595      3.1730      3.4095      3.8244      5.4696      7.2590      7.3227    170.9826   1356.9352   8754.9912
  8755.5000     62.9818      0.0000      3.5286    309.5312      5.1820      3.2404      2.9140      3.1880      3.3215      5.1811      6.6300      6.5636    171.4261   1345.8776   8755.5000
  8756.0000     66.2014      0.0000      3.3936    308.0640      5.1201      3.5140      3.1348      3.1352      3.1724      4.9272      6.1642      5.9024    171.2053   1352.1962   8755.9834
  8756.5000     68.4198      0.0000      3.0256    316.0655      4.5746      3.2576      3.1853      3.0147      2.9576      4.2768      5.4138      5.1628    171.3324   1366.4132   8756.4912
  8757.0000     59.8045      0.0000      2.7026    346.5922      3.5662      2.4501      2.5259      2.5537      2.6838      3.6790      4.3072      3.9419    171.3251   1350.6166   8757.0000
  8757.5000     57.0965      0.0000      3.0348    380.1947      3.5870      2.3998      2.5832      2.8474      3.1814      3.8282      4.0754      3.8826    171.2935   1344.2979   8757.5000
  8758.0000     61.3940      0.0000      3.0911    361.4763      3.3280      2.0920      2.4585      3.0235      3.2797      3.7419      3.6239      3.4669    171.2863   1336.3995   8758.0000
  8758.5000     62.1919      0.0000      3.0790    324.7271      3.5085      2.1328      2.3384      2.7407      2.7246      3.3337      3.5722      3.6081    171.0546   1350.6166   8758.5000
  8759.0000     61.1929      0.0000      3.3748    339.4330      4.3690      2.9571      2.9899      3.0744      3.1430      3.8401      4.1794      4.4116    171.4270   1339.5588   8758.9912
  8759.5000     54.2464      0.0000      2.8853    385.2358      3.7054      2.4887      2.2459      2.2503      2.4624      3.1486      3.6407      3.7274    171.4209   1333.2402   8759.4912
  8760.0000     50.4815      0.0000      2.4672    379.5771      2.9373      1.9398      1.7321      1.8905      2.2447      2.9290      3.2697      3.1712    171.2946   1331.6605   8759.9912
  8760.5000     52.7630      0.0000      2.4065    358.3663      2.7522      1.6980      1.7713      2.1087      2.3181      3.0760      3.3964      3.2254    170.9738   1349.0369   8760.5000
  8761.0000     50.2597      0.0000      2.3467    358.5978      2.7155      1.4405      1.5045      1.9297      2.0130      2.8033      3.2575      3.0513    171.5239   1349.0369   8761.0000
  8761.5000     52.5195      0.0000      2.4422    367.0267      2.8200      1.4112      1.4428      1.6749      1.8091      2.5830      3.2222      3.1746    171.2428   1347.4572   8761.5000
  8762.0000     59.6902      0.0000      2.4318    376.3808      2.9046      1.8499      1.7567      1.8239      1.7968      2.5787      3.1186      3.0957    171.3244   1347.4572   8761.9912
  8762.5000     61.4064      0.0000      2.3317    371.5989      2.8206      2.0253      1.7953      1.8498      1.9957      2.8094      3.2574      3.2192    171.4026   1355.3555   8762.5000
  8763.0000     66.3649      0.0000      2.3761    348.6686      2.9028      2.1052      1.8461      1.8575      2.2417      3.1115      3.6802      3.5972    171.2340   1344.2979   8763.0000
  8763.5000     69.3497      0.0000      2.4781    345.3042      3.0341      2.1733      2.1182      2.1982      2.3718      2.9647      3.5079      3.5345    171.3512   1344.2979   8763.4912
