~Version Information
VERS.                      2.0: CWLS Log ASCII Standard - VERSION 2.0
WRAP.                       NO: One line per depth step
~Well Information Block
STRT.FT               -14.0000: START DEPTH
STOP.FT              9405.0000: STOP DEPTH
STEP.FT                 0.5000: STEP
NULL.                -999.2500: NULL VALUE
COMP.          Chesapeake Energy: COMPANY
WELL.          Brand 32 - 8 -2 1H: WELL
FLD.                     Utica: FIELD
LOC.           Lat: 40.487717--Long: -80.733858----: LOCATION
CNTY.                Jefferson: COUNTY
SRVC.      NINE ENERGY SERVICE: SERVICE COMPANY
DATE.          Mon Nov 21 10-28-03 2016: LOG DATE
UWI.              34-081-20629: UNIQUE WELL ID
STAT.                       OH: STATE
~Curve Information Block
DEPT.FT            0 000 00 00: Depth
GR.GAPI                       : Gamma Ray
CCL.                          : Casing Collar Locator
AMP3FT.MV                     : AMP3FT Amplitude
TT3FT.USEC                    : 3FT Travel Time
AMPS1.                        : AMPS1 Amplitude
AMPS2.                        : AMPS2 Amplitude
AMPS3.                        : AMPS3 Amplitude
AMPS4.                        : AMPS4 Amplitude
AMPS5.                        : AMPS5 Amplitude
AMPS6.                        : AMPS6 Amplitude
AMPS7.                        : AMPS7 Amplitude
AMPS8.                        : AMPS8 Amplitude
Temp.DEGF                     : Integral Temperature
LTEN.LB                       : Surface Line Tension
ADPTH.FT                      : Actual Depth
~Parameter Information Block
TDEPTH.FT               0.0000: Total Depth
~A  Depth        GR         CCL        AMP3FT      TT3FT       AMPS1       AMPS2       AMPS3       AMPS4       AMPS5       AMPS6       AMPS7       AMPS8        Temp        LTEN       ADPTH    
   -14.0000   -999.2500   -999.2500   -999.2500   -999.2500   -999.2500   -999.2500   -999.2500   -999.2500   -999.2500   -999.2500   -999.2500   -999.2500   -999.2500   -999.2500   -999.2500
   -13.5000   -999.2500   -999.2500   -999.2500   -999.2500   -999.2500   -999.2500   -999.2500   -999.2500   -999.2500   -999.2500   -999.2500   -999.2500   -999.2500   -999.2500   -999.2500
   -13.0000   -999.2500   -999.2500   -999.2500   -999.2500   -999.2500   -999.2500   -999.2500   -999.2500   -999.2500   -999.2500   -999.2500   -999.2500   -999.2500   -999.2500   -999.2500
   -12.5000   -999.2500   -999.2500   -999.2500   -999.2500   -999.2500   -999.2500   -999.2500   -999.2500   -999.2500   -999.2500   -999.2500   -999.2500   -999.2500   -999.2500   -999.2500
   -12.0000   -999.2500   -999.2500   -999.2500   -999.2500   -999.2500   -999.2500   -999.2500   -999.2500   -999.2500   -999.2500   -999.2500   -999.2500   -999.2500   -999.2500   -999.2500
   -11.5000   -999.2500   -999.2500   -999.2500   -999.2500   -999.2500   -999.2500   -999.2500   -999.2500   -999.2500   -999.2500   -999.2500   -999.2500     50.9539   -999.2500   -999.2500
   -11.0000   -999.2500   -999.2500   -999.2500   -999.2500   -999.2500   -999.2500   -999.2500   -999.2500   -999.2500   -999.2500   -999.2500   -999.2500     50.7663   -999.2500   -999.2500
   -10.5000   -999.2500   -999.2500   -999.2500   -999.2500   -999.2500   -999.2500   -999.2500   -999.2500   -999.2500   -999.2500   -999.2500   -999.2500     50.8726   -999.2500   -999.2500
   -10.0000   -999.2500   -999.2500   -999.2500   -999.2500   -999.2500   -999.2500   -999.2500   -999.2500   -999.2500   -999.2500   -999.2500   -999.2500     51.0216   -999.2500   -999.2500
    -9.5000   -999.2500   -999.2500   -999.2500   -999.2500   -999.2500   -999.2500   -999.2500   -999.2500   -999.2500   -999.2500   -999.2500   -999.2500     51.1961   -999.2500   -999.2500
    -9.0000   -999.2500   -999.2500   -999.2500   -999.2500   -999.2500   -999.2500   -999.2500   -999.2500   -999.2500   -999.2500   -999.2500   -999.2500     51.0744   -999.2500   -999.2500
    -8.5000   -999.2500   -999.2500      0.9155   1408.0000      0.1984      0.0346      0.0649     -0.0691     -0.0024     -0.0727      0.0177      0.0915     50.9426   -999.2500   -999.2500
    -8.0000   -999.2500   -999.2500      0.9087   1408.0000     -0.0031     -0.0486      0.0593     -0.0394      0.1260     -0.0968     -0.0572      0.0144     51.2841   -999.2500   -999.2500
    -7.5000   -999.2500   -999.2500      0.8781   1408.0000     -0.0195     -0.0615      0.0897     -0.0215      0.0223     -0.0759      0.0099      0.0177     51.0341   -999.2500   -999.2500
    -7.0000   -999.2500   -999.2500      0.8664   1408.0000      0.0560     -0.0538      0.0183      0.0080     -0.0363     -0.0545     -0.0196      0.0390     51.2339   -999.2500   -999.2500
    -6.5000   -999.2500   -999.2500      0.8534   1408.0000      0.1015     -0.0062     -0.0402      0.0008     -0.0570     -0.0627     -0.0692     -0.0249     51.2495   -999.2500   -999.2500
    -6.0000   -999.2500   -999.2500      0.8924   1408.0000      0.0588     -0.0203     -0.0107      0.0381     -0.0142     -0.0505     -0.0852     -0.0159     51.1477   -999.2500   -999.2500
    -5.5000   -999.2500   -999.2500      0.9118   1408.0000      0.0482     -0.0086     -0.0231     -0.0405     -0.0008     -0.1125     -0.1537      0.0198     51.3174   -999.2500   -999.2500
    -5.0000   -999.2500   -999.2500      0.9514   1408.0000      0.4000      0.2382      0.0599     -0.0839      0.0714     -0.1193     -0.1979      0.3122     51.2246   -999.2500   -999.2500
    -4.5000   -999.2500      0.0000      1.0441   1408.0000      0.7158      0.6843      0.2961     -0.0052     -0.0324      0.0070     -0.1529      0.4979     51.3130   -999.2500   -999.2500
    -4.0000   -999.2500      0.0000      0.9248   1408.0000      0.2786      0.3084      0.2012     -0.0231     -0.0815      0.2093     -0.0722      0.1000     51.3463   -999.2500   -999.2500
    -3.5000   -999.2500      0.0000      0.8607   1408.0000      0.1295      0.0112      0.0169     -0.0391     -0.0190      0.1950      0.0298      0.0316     51.3925   -999.2500   -999.2500
    -3.0000   -999.2500      0.0000      0.9299   1408.0000      0.2891      0.1012      0.0849      0.0493      0.0598     -0.0507     -0.0303      0.1790     51.1077   -999.2500   -999.2500
    -2.5000   -999.2500      0.0000      1.0862   1408.0000      0.9315      0.9678      0.7580      0.7097      0.7755      0.2326     -0.3228      0.5038     51.3022   -999.2500   -999.2500
    -2.0000   -999.2500      0.0000      1.1969   1408.0000      0.9772      1.2858      1.1158      1.8555      2.1341      1.1266     -0.1929      0.8128     51.3868   -999.2500   -999.2500
    -1.5000     14.8326      0.0000      1.0852   1408.0000      0.3218      0.4136      0.3855      1.0853      1.2994      0.8995      0.0940      0.4407     51.5303   -999.2500   -999.2500
    -1.0000     10.6963      0.0000      1.0704   1408.0000      0.1743      0.2471      0.1131      0.5864      0.6905      0.5827     -0.0229      0.0498     51.2825    330.1542     -1.0000
    -0.5000      7.0459      0.0000      1.0010   1408.0000      0.1164      0.0241     -0.0819      0.0937      0.1162      0.1420     -0.1770     -0.0428     51.4476    330.1542     -0.5083
     0.0000      5.5803      0.0000      1.0449   1408.0000      0.1774     -0.0372     -0.1351      0.0070      0.0444      0.1487     -0.1600     -0.0218     51.4365    331.7338     -0.0500
     0.5000      1.1656     -1.0000      1.0016   1408.0000      0.2659      0.0369     -0.0713      0.1400      0.1484      0.2843      0.1453      0.0415     51.5112    334.8932      0.4917
     1.0000      0.1413      0.0000      0.9615   1408.0000      0.2401      0.0840     -0.0680      0.0803      0.0196     -0.0209      0.2399      0.1579     51.3876    334.8932      1.0000
     1.5000      0.0070     -1.0000      1.0149   1407.5396      0.4889      0.1193      0.3682      0.5518      0.4516      0.0871      0.2154      0.2401     51.4591    336.4728      1.5000
     2.0000      0.0155      0.0000      1.0249   1386.5460      0.2961     -0.0707      0.7755      1.1029      0.9361      0.2968      0.2386      0.3324     51.4871    311.1982      1.9917
     2.5000      0.1890      1.0000      0.8364   1184.1030     -0.0762     -0.2654      0.1183      0.2154      0.0449     -0.1680     -0.2075     -0.0447     51.6148    320.6762      2.5000
     3.0000      0.8478      0.0000      0.8595    734.8049      0.0971     -0.0416      0.0224     -0.1193     -0.1698     -0.1027     -0.2795     -0.0224     51.8445    338.0525      2.9917
     3.5000      1.4277      0.0000      0.8883    493.4014      0.3142      0.0540      0.1002      0.0230      0.1635      0.2887     -0.0391      0.1144     51.9356    320.6762      3.5000
     4.0000      1.2352      0.0000      0.8600    421.9947      0.3861      0.1383      0.2014      0.2238      0.3061      0.3264      0.2278      0.2660     52.0689    326.9948      3.9917
     4.5000      2.0094      1.0000      0.9766    381.8192      0.2899      0.2943      0.2450      0.4066      0.2679      0.2262      0.1719      0.3162     51.9805    306.4592      4.4917
     5.0000      3.3890     -1.0000      1.2651    412.1156      0.2844      0.3636      0.2400      0.4217      0.2374      0.1737      0.1880      0.3016     52.2507    308.0389      5.0000
     5.5000      2.8154      1.0000      1.2588    437.6519      0.3054      0.2179      0.2229      0.3314      0.1046      0.1006      0.3172      0.2017     52.3474    306.4592      5.4917
     6.0000      1.7905      0.0000      0.9759    440.3209      0.3485      0.0343      0.1868      0.1812     -0.0195      0.2073      0.2858      0.0539     52.2123    304.8795      6.0000
     6.5000      1.5638      0.0000      0.9245    408.4975      0.2297     -0.0068      0.1217      0.0435     -0.0902      0.0716      0.3374      0.1516     52.1779    304.8795      6.5000
