~Version Information
VERS.                      2.0: CWLS Log ASCII Standard - VERSION 2.0
WRAP.                       NO: One line per depth step
~Well Information Block
STRT.FT               -14.0000: START DEPTH
STOP.FT              9405.0000: STOP DEPTH
STEP.FT                 0.5000: STEP
NULL.                -999.2500: NULL VALUE
COMP.          Chesapeake Energy: COMPANY
WELL.          Brand 32 - 8 -2 1H: WELL
FLD.                     Utica: FIELD
LOC.           Lat: 40.487717--Long: -80.733858----: LOCATION
CNTY.                Jefferson: COUNTY
SRVC.      NINE ENERGY SERVICE: SERVICE COMPANY
DATE.          Mon Nov 21 10-28-03 2016: LOG DATE
UWI.              34-081-20629: UNIQUE WELL ID
STAT.                       OH: STATE
~Curve Information Block
DEPT.FT            0 000 00 00: Depth
GR.GAPI                       : Gamma Ray
CCL.                          : Casing Collar Locator
AMP3FT.MV                     : AMP3FT Amplitude
TT3FT.USEC                    : 3FT Travel Time
AMPS1.                        : AMPS1 Amplitude
AMPS2.                        : AMPS2 Amplitude
AMPS3.                        : AMPS3 Amplitude
AMPS4.                        : AMPS4 Amplitude
AMPS5.                        : AMPS5 Amplitude
AMPS6.                        : AMPS6 Amplitude
AMPS7.                        : AMPS7 Amplitude
AMPS8.                        : AMPS8 Amplitude
Temp.DEGF                     : Integral Temperature
LTEN.LB                       : Surface Line Tension
ADPTH.FT                      : Actual Depth
~Parameter Information Block
TDEPTH.FT               0.0000: Total Depth
~A  Depth        GR         CCL        AMP3FT      TT3FT       AMPS1       AMPS2       AMPS3       AMPS4       AMPS5       AMPS6       AMPS7       AMPS8        Temp        LTEN       ADPTH    
# ...
  4375.0000     68.3147      0.0000     41.8865    264.1622     57.4991     53.5642     53.1112     55.9445     58.8708     66.5206     72.3374     68.5501    115.5874    701.3750   4374.9917
  4375.5000     57.4533      0.0000     41.8555    264.1619     57.1484     53.3638     52.9409     55.7315     58.2548     65.7533     71.6972     68.0249    115.7322    701.3750   4375.5000
  4376.0000     56.8812      0.0000     41.3851    264.1294     56.3250     52.4839     51.9222     54.6679     56.7433     64.2755     70.6379     67.1449    115.6297    702.9547   4375.9917
  4376.5000     65.7733      0.0000     41.3978    264.0197     55.9738     51.9938     51.5725     54.5291     56.4317     63.7724     70.1071     66.4381    115.9376    702.9547   4376.5000
  4377.0000     67.0328      0.0000     41.5736    263.9682     56.1729     52.2862     52.2302     55.4464     57.6178     64.9879     70.8327     66.5694    115.6754    701.3750   4376.9917
  4377.5000     66.8750      0.0000     40.9077    263.9274     55.1889     51.5794     51.5197     54.4485     57.3527     65.1508     70.5749     65.4758    115.7555    699.7953   4377.5000
  4378.0000     82.4369      0.0000     40.8349    263.8575     54.6608     51.2034     51.0495     54.0654     57.5296     65.6889     70.8906     65.1060    115.7934    701.3750   4377.9917
  4378.5000     92.6627      0.0000     41.0715    263.9277     54.9102     51.8757     51.8648     54.9334     57.5388     65.3645     70.3834     65.0442    115.8502    699.7953   4378.5000
  4379.0000     88.2200      0.0000     40.8949    264.0941     55.3665     52.4579     52.2153     55.0328     56.8181     64.4710     69.7207     65.2647    115.7924    699.7953   4378.9917
  4379.5000     81.6132      0.0000     41.3523    264.0490     56.5516     53.2216     52.5420     55.3256     57.2560     65.1478     70.9377     66.6620    115.7978    699.7953   4379.5000
  4380.0000     78.2429      0.0000     41.9212    263.9077     57.3298     54.0675     53.1315     55.6712     57.6233     65.7125     72.0190     67.3307    115.8806    699.7953   4379.9917
  4380.5000     72.6673      0.0000     42.2826    263.8043     57.0859     54.5097     53.9364     56.2534     58.0522     66.0688     72.3128     66.7557    115.8575    702.9547   4380.5000
  4381.0000     65.1245      0.0000     42.1871    263.7390     56.0445     53.7839     53.9240     56.4602     59.1014     67.3319     72.7018     65.9859    115.7529    702.9547   4380.9917
  4381.5000     69.1797      0.0000     41.5718    263.8918     54.8767     52.2311     52.6729     55.6603     59.4572     68.1278     72.9289     65.5843    115.9918    702.9547   4381.5000
  4382.0000     71.5553      0.0000     41.8272    264.0086     55.3022     52.9343     53.0706     56.2744     59.9090     68.2982     72.9208     65.8004    115.8952    702.9547   4381.9917
  4382.5000     60.0509      0.0000     42.3162    264.0432     56.2300     53.8652     53.6843     56.6742     59.9734     68.3377     73.2376     66.5645    115.9231    704.5343   4382.5000
  4383.0000     49.8119      0.0000     42.8192    263.9871     57.0838     54.3512     54.1467     56.7640     60.0183     68.7209     73.9567     67.4053    115.9040    704.5343   4382.9917
  4383.5000     50.2805      0.0000     42.9348    263.9118     57.3049     54.2690     53.8926     56.0285     59.2567     68.7040     74.5418     67.6692    115.9473    702.9547   4383.4917
  4384.0000     58.3421      0.0000     41.3573    263.8390     55.0838     51.7823     51.8707     53.8503     57.1486     66.8346     73.1515     65.7247    115.9375    701.3750   4384.0000
  4384.5000     70.6132      0.0000     40.3601    263.7488     53.1355     50.4891     51.5812     53.8017     56.7288     65.2734     70.8179     63.1886    115.9350    702.9547   4384.4917
  4385.0000     80.7520      0.0000     41.1897    263.6658     54.0398     52.0101     53.0509     55.6853     58.6723     66.7041     71.0205     63.4656    115.7900    701.3750   4385.0000
  4385.5000     88.1843      0.0000     41.6631    263.6310     54.4869     52.6670     53.7340     56.8881     60.2217     67.8905     71.1546     63.4779    116.1233    701.3750   4385.5000
  4386.0000     92.0962      0.0000     41.2338    263.6844     53.6108     51.9635     53.1981     56.6788     60.4394     67.6566     70.2066     62.5870    116.0810    701.3750   4385.9917
  4386.5000     87.0246      0.0000     39.9986    263.6500     51.4913     50.1196     51.9934     55.7605     59.2923     65.4668     68.1096     60.3259    115.9160    704.5343   4386.5000
  4387.0000     79.1932      0.0000     37.6614    263.6136     48.7015     47.9053     50.1426     53.2412     55.3741     60.7351     64.1970     56.6212    115.8780    704.5343   4386.9917
  4387.5000     77.8552      0.0000     35.1043    263.5720     47.3494     46.5249     47.4869     49.0323     50.2255     55.9774     60.4892     54.1051    115.7880    706.1140   4387.5000
  4388.0000     74.1712      0.0000     32.5822    263.6268     45.4111     43.9163     43.3490     44.4193     46.3786     53.0778     58.3564     52.4508    116.1107    706.1140   4387.9917
  4388.5000     75.4681      0.0000     31.7090    263.6094     44.0660     41.9698     41.0177     42.4484     44.9815     52.6595     58.3208     51.9422    116.1269    706.1140   4388.5000
  4389.0000     83.3097      0.0000     32.5633    263.6456     43.9374     42.2013     41.6982     43.6973     46.3493     54.9266     59.9653     52.5190    116.0283    706.1140   4388.9917
  4389.5000     72.3625      0.0000     32.6220    265.1438     42.7677     41.6906     41.8473     44.0882     46.8070     55.4913     59.2463     51.0162    116.0799    706.1140   4389.4917
  4390.0000     50.5052      0.0000     33.2394    267.7383     43.0542     41.5968     41.8000     43.4940     46.9816     56.4092     60.0171     51.4650    116.2693    706.1140   4390.0000
  4390.5000     43.6295      0.0000     30.1491    268.6923     38.0335     36.3886     36.4472     37.7466     40.9378     48.4558     51.6937     45.2904    115.9007    706.1140   4390.4917
  4391.0000     53.3123      1.0000     28.5964    268.4828     36.2875     35.2138     35.8128     37.2725     39.6327     45.7302     48.2868     42.8240    116.0059    704.5343   4391.0000
  4391.5000     58.9226     -1.0000     28.7254    268.5319     37.2806     36.6675     37.7013     39.1535     41.2929     47.2905     49.3613     43.5753    116.1188    704.5343   4391.5000
  4392.0000     54.7592      0.0000     28.0302    268.7645     37.0587     36.4927     37.3929     38.7561     40.7931     46.6213     48.3567     42.9788    116.0315    704.5343   4392.0000
  4392.5000     52.3497      0.0000     27.2881    269.4844     37.2064     36.2763     36.5599     37.5322     39.5158     45.7542     47.7340     42.7688    116.1403    706.1140   4392.4917
  4393.0000     60.4354      0.0000     31.9203    267.9593     43.6558     41.8864     42.0756     43.2538     46.0078     54.1126     57.0859     50.8843    116.0369    706.1140   4393.0000
  4393.5000     71.5394      0.0000     37.2139    264.3250     49.2894     47.0964     47.8135     50.1649     53.3313     62.2880     66.2938     58.7352    116.1611    706.1140   4393.4917
  4394.0000     73.0793      0.0000     40.8674    263.0540     52.8769     50.3537     51.3132     54.5611     58.5095     68.0462     73.1425     64.3720    116.1532    707.6937   4393.9917
  4394.5000     74.8627      0.0000     41.6002    262.9980     53.9397     50.6283     51.1848     54.8124     59.6334     69.3899     74.9882     66.2950    116.0838    707.6937   4394.4917
  4395.0000     83.0080      0.0000     41.2757    263.2977     54.2195     50.1367     50.5553     53.9339     58.6170     67.7235     73.4446     66.0373    116.0370    707.6937   4394.9917
  4395.5000     83.5576      0.0000     42.2213    263.4488     56.0497     52.3429     52.5762     55.2946     58.9440     67.7945     73.3220     66.8597    116.0512    706.1140   4395.5000
