~Version Information
VERS.                      2.0: CWLS Log ASCII Standard - VERSION 2.0
WRAP.                       NO: One line per depth step
~Well Information Block
STRT.FT               -14.0000: START DEPTH
STOP.FT              9405.0000: STOP DEPTH
STEP.FT                 0.5000: STEP
NULL.                -999.2500: NULL VALUE
COMP.          Chesapeake Energy: COMPANY
WELL.          Brand 32 - 8 -2 1H: WELL
FLD.                     Utica: FIELD
LOC.           Lat: 40.487717--Long: -80.733858----: LOCATION
CNTY.                Jefferson: COUNTY
SRVC.      NINE ENERGY SERVICE: SERVICE COMPANY
DATE.          Mon Nov 21 10-28-03 2016: LOG DATE
UWI.              34-081-20629: UNIQUE WELL ID
STAT.                       OH: STATE
~Curve Information Block
DEPT.FT            0 000 00 00: Depth
GR.GAPI                       : Gamma Ray
CCL.                          : Casing Collar Locator
AMP3FT.MV                     : AMP3FT Amplitude
TT3FT.USEC                    : 3FT Travel Time
AMPS1.                        : AMPS1 Amplitude
AMPS2.                        : AMPS2 Amplitude
AMPS3.                        : AMPS3 Amplitude
AMPS4.                        : AMPS4 Amplitude
AMPS5.                        : AMPS5 Amplitude
AMPS6.                        : AMPS6 Amplitude
AMPS7.                        : AMPS7 Amplitude
AMPS8.                        : AMPS8 Amplitude
Temp.DEGF                     : Integral Temperature
LTEN.LB                       : Surface Line Tension
ADPTH.FT                      : Actual Depth
~Parameter Information Block
TDEPTH.FT               0.0000: Total Depth
~A  Depth        GR         CCL        AMP3FT      TT3FT       AMPS1       AMPS2       AMPS3       AMPS4       AMPS5       AMPS6       AMPS7       AMPS8        Temp        LTEN       ADPTH    
# ...
  9373.0000     38.9901      0.0000      2.7806    366.0814      3.7883      2.9564      3.1160      2.9435      3.3388      4.6824      5.2315      4.0460    180.8560   1363.2538   9373.0000
  9373.5000     35.0927      0.0000      2.6959    368.9147      3.4963      2.7961      2.8947      2.9295      3.3987      4.5988      5.0356      4.0037    180.7234   1399.5861   9373.5000
  9374.0000     31.0895      0.0000      2.6971    368.5883      3.1943      2.4975      2.4579      2.6974      3.3063      4.5151      4.9481      3.6780    180.8046   1481.7285   9373.9912
  9374.5000     31.7043      0.0000      2.5233    390.9348      2.8620      1.8749      1.9826      2.0399      2.5603      4.0410      4.2579      3.0928    180.7508   1513.3218   9374.5000
  9375.0000     34.0642      0.0000      2.3033    407.0627      2.7704      1.7319      1.8422      1.6010      2.1052      3.4442      3.4582      2.7218    180.8334   1513.3218   9375.0000
  9375.5000     32.9557      0.0000      2.2160    408.7023      2.7569      1.7936      1.6390      1.5816      2.0855      3.1852      3.0218      2.5730    180.8204   1488.0472   9375.5000
  9376.0000     27.7315      0.0000      2.4047    408.0715      3.1816      2.0316      1.7884      1.8439      2.4404      3.4649      3.3982      2.9436    180.6889   1435.9183   9376.0000
  9376.5000     22.1931      0.0000      2.3538    408.1875      3.3109      2.1521      2.0152      2.1823      2.8039      3.5826      3.5473      2.9335    180.5321   1386.9487   9376.5000
  9377.0000     23.0463      0.0000      2.0474    407.5877      2.9365      1.8403      1.6823      2.0357      2.6458      3.2795      3.0746      2.3896    180.8565   1342.7183   9377.0000
  9377.5000     28.0780      0.0000      1.9903    399.8120      2.7709      1.7175      1.6827      2.1153      2.4983      3.0559      2.8654      2.3912    180.8604   1319.0233   9377.5000
  9378.0000     32.8215      0.0000      2.0021    391.0418      2.7971      1.5918      1.8759      2.2391      2.2138      2.8706      2.9570      2.5179    180.7188   1503.8439   9378.0000
  9378.5000     32.9680      0.0000      1.8648    397.9767      2.5755      1.2359      1.4826      1.7546      1.8699      2.7225      3.1445      2.4168    180.5924   1503.8439   9378.5000
  9379.0000     28.3697      0.0000      1.9635    420.7971      2.4013      1.1090      1.2055      1.4126      2.1288      3.0048      3.1841      2.4657    180.9763   1499.1049   9378.9912
  9379.5000     31.3937      0.0000      1.9163    449.1349      2.3187      1.0559      0.9790      1.1189      1.8755      2.7022      2.6050      2.2590    180.6049   1462.7726   9379.5000
  9380.0000     38.9102      0.0000      1.8778    464.3697      2.3524      1.1363      0.9041      0.9548      1.5669      2.4026      2.3785      2.0969    180.6618   1443.8167   9380.0000
  9380.5000     40.2951      0.0000      1.9336    471.2014      2.4622      1.2440      1.1475      1.2882      1.9127      2.6946      2.6599      2.1890    180.8116   1443.8167   9380.5000
  9381.0000     38.2336      0.0000      1.9242    485.8785      2.6552      1.6254      1.6304      1.8047      2.2494      3.1887      3.0463      2.4325    180.9665   1446.9760   9380.9912
  9381.5000     33.5286      0.0000      1.9976    495.9324      2.5183      1.5362      1.6893      2.0079      2.4633      3.7812      3.5036      2.4506    180.6491   1446.9760   9381.5000
  9382.0000     30.8642      0.0000      1.9431    506.5264      1.9541      1.1290      1.4915      2.1383      2.5095      3.5768      3.3261      2.0721    180.7965   1445.3964   9382.0000
  9382.5000     34.3138      0.0000      1.6622    499.2959      1.6041      0.9468      1.1955      1.6147      2.0323      2.7612      2.5546      1.6562    180.4161   1445.3964   9382.5000
  9383.0000     35.2123      0.0000      1.9424    464.8697      2.1913      1.2865      1.3524      1.7019      2.2863      3.0094      2.6517      2.0231    180.8271   1443.8167   9383.0000
  9383.5000     35.0219      0.0000      1.9921    438.3472      2.2098      1.2338      1.2794      1.7779      2.0886      2.5965      2.4513      1.9787    180.7495   1443.8167   9383.5000
  9384.0000     37.6736      0.0000      2.0642    445.7365      2.4313      1.4909      1.4496      1.7853      1.8291      2.2399      2.3760      2.0472    180.6685   1443.8167   9384.0000
  9384.5000     42.1165      0.0000      2.1931    452.6399      2.8163      1.8306      1.7680      1.8947      1.7901      2.4802      2.9087      2.5578    180.7764   1442.2369   9384.5000
  9385.0000     41.4582      0.0000      1.9554    438.9851      2.3316      1.4359      1.7390      1.7742      1.5177      2.3456      2.7145      2.0886    180.7712   1440.6573   9385.0000
  9385.5000     32.9510      0.0000      1.9041    415.5409      2.0312      1.3639      1.7638      1.8293      1.4650      2.1372      2.3689      1.8458    181.0113   1440.6573   9385.5000
  9386.0000     24.3101      0.0000      2.2872    412.5347      2.6144      1.7060      1.9841      2.1859      2.0800      2.7103      3.0041      2.4435    180.6982   1459.6133   9386.0000
  9386.5000     21.2008      0.0000      2.0328    422.2852      2.3243      1.3798      1.5628      1.8230      2.1698      2.7183      2.8989      2.0841    180.7378   1462.7726   9386.5000
  9387.0000     23.7814      0.0000      1.8082    435.8311      1.9945      1.2189      1.3324      1.6939      2.2252      2.6023      2.7520      1.9914    180.7685   1461.1930   9386.9912
  9387.5000     24.2007      0.0000      2.0627    436.5699      2.1898      1.3774      1.4594      1.8018      2.4001      2.8692      3.1757      2.4308    180.8315   1476.9896   9387.5000
  9388.0000     21.1257      0.0000      2.2533    424.1815      2.5222      1.6678      1.7157      1.9680      2.5446      3.1844      3.5100      2.7103    180.8307   1456.4540   9388.0000
  9388.5000     20.4598      0.0000      2.1770    425.2035      2.5950      1.7260      1.9084      2.1135      2.4906      3.2616      3.6471      2.6630    180.7677   1446.9760   9388.5000
  9389.0000     21.1226      0.0000      2.1624    422.8026      2.7637      2.0246      2.2417      2.3700      2.5706      3.3198      3.6390      2.6334    180.6452   1432.7590   9389.0000
  9389.5000     26.1097      0.0000      2.3327    432.4835      3.1639      2.4267      2.4896      2.4863      2.8443      3.7439      3.9690      3.0969    180.9007   1453.2947   9389.5000
  9390.0000     33.0964      0.0000      2.3581    448.6401      3.0622      2.2417      2.1091      2.2096      2.6305      3.5247      3.8593      3.0611    180.4684   1462.7726   9389.9912
  9390.5000     34.8140      0.0000      2.1486    449.1605      2.4638      1.5054      1.3791      1.5674      2.2439      3.2167      3.4421      2.5417    180.4117   1491.2065   9390.5000
  9391.0000     32.6103      0.0000      1.9611    429.3352      2.2219      1.2524      1.1502      1.4763      2.3061      3.4467      3.4312      2.3781    180.5745   1486.4675   9391.0000
  9391.5000     29.4900      0.0000      1.7304    433.5521      1.9630      1.0376      0.8602      1.3539      1.8598      2.9880      2.9343      1.9268    180.4816   1462.7726   9391.5000
  9392.0000     29.8226      0.0000      1.7955    484.7919      1.9321      1.1388      0.9813      1.5011      1.8566      2.8564      2.7910      1.7885    180.9369   1462.7726   9392.0000
  9392.5000     32.8247      0.0000      1.9376    505.1433      2.0353      1.1697      1.1879      1.5425      1.9664      2.8975      2.7387      1.8322    180.8424   1464.3523   9392.5000
  9393.0000     34.2598      0.0000      1.8937    506.4098      2.1321      1.0837      1.3431      1.5706      2.1394      3.0218      2.7994      1.8766    180.8735   1442.2369   9393.0000
  9393.5000     34.1898      0.0000      1.7639    506.2643      2.0730      1.1016      1.2833      1.6236      2.1585      3.0333      2.8877      1.9044    180.2168   1445.3964   9393.5000
