~Version Information
VERS.                      2.0: CWLS Log ASCII Standard - VERSION 2.0
WRAP.                       NO: One line per depth step
~Well Information Block
STRT.FT               -14.0000: START DEPTH
STOP.FT              9405.0000: STOP DEPTH
STEP.FT                 0.5000: STEP
NULL.                -999.2500: NULL VALUE
COMP.          Chesapeake Energy: COMPANY
WELL.          Brand 32 - 8 -2 1H: WELL
FLD.                     Utica: FIELD
LOC.           Lat: 40.487717--Long: -80.733858----: LOCATION
CNTY.                Jefferson: COUNTY
SRVC.      NINE ENERGY SERVICE: SERVICE COMPANY
DATE.          Mon Nov 21 10-28-03 2016: LOG DATE
UWI.              34-081-20629: UNIQUE WELL ID
STAT.                       OH: STATE
~Curve Information Block
DEPT.FT            0 000 00 00: Depth
GR.GAPI                       : Gamma Ray
CCL.                          : Casing Collar Locator
AMP3FT.MV                     : AMP3FT Amplitude
TT3FT.USEC                    : 3FT Travel Time
AMPS1.                        : AMPS1 Amplitude
AMPS2.                        : AMPS2 Amplitude
AMPS3.                        : AMPS3 Amplitude
AMPS4.                        : AMPS4 Amplitude
AMPS5.                        : AMPS5 Amplitude
AMPS6.                        : AMPS6 Amplitude
AMPS7.                        : AMPS7 Amplitude
AMPS8.                        : AMPS8 Amplitude
Temp.DEGF                     : Integral Temperature
LTEN.LB                       : Surface Line Tension
ADPTH.FT                      : Actual Depth
~Parameter Information Block
TDEPTH.FT               0.0000: Total Depth
~A  Depth        GR         CCL        AMP3FT      TT3FT       AMPS1       AMPS2       AMPS3       AMPS4       AMPS5       AMPS6       AMPS7       AMPS8        Temp        LTEN       ADPTH    
# ...
  1246.0000     37.6640      0.0000     22.4697    265.2956     29.7919     29.3175     28.9142     29.6428     29.9098     30.4217     30.5961     30.4830     63.5693    274.8660   1245.9917
  1246.5000     40.1127      0.0000     22.7241    265.2731     30.1983     29.8266     29.4297     30.1335     30.2619     30.7144     30.7999     30.8811     63.6209    273.2863   1246.5000
  1247.0000     43.6674      0.0000     22.6406    265.2845     29.9221     29.9127     29.7532     30.2888     30.1040     30.2335     30.2396     30.4999     63.6632    273.2863   1247.0000
  1247.5000     38.2755      0.0000     22.5081    265.3494     29.4707     29.6493     29.7370     30.2068     30.0691     30.0877     29.8220     30.0341     63.6399    273.2863   1247.4917
  1248.0000     28.4805      0.0000     22.4559    265.4040     29.3875     29.4871     29.5234     29.9684     29.9939     30.3287     29.9767     29.9615     63.6415    273.2863   1248.0000
  1248.5000     23.1076      0.0000     22.1935    265.4000     29.2468     28.9545     28.4646     28.9954     29.2910     30.1362     30.1350     30.0382     63.5999    274.8660   1248.5000
  1249.0000     23.0678      0.0000     21.9441    265.3747     28.9874     28.0602     27.1939     28.0632     28.6292     29.9200     30.2899     30.2605     63.7362    274.8660   1249.0000
  1249.5000     25.4456      0.0000     21.6989    265.3714     28.6977     27.5500     26.7474     27.7182     28.5649     29.7736     30.1938     30.1831     63.8044    274.8660   1249.5000
  1250.0000     25.7057      0.0000     21.3562    265.3852     28.0851     27.3607     26.9240     27.5742     28.4791     29.2788     29.4959     29.3947     63.6811    274.8660   1250.0000
  1250.5000     25.9182      0.0000     21.2176    265.4121     27.8156     27.5733     27.1100     27.2792     28.0291     28.7279     28.6198     28.6155     63.6759    274.8660   1250.4917
  1251.0000     28.5550      0.0000     20.6082    265.5757     27.2513     27.0219     26.3276     26.6402     27.1157     27.6505     27.4510     27.6823     63.6381    274.8660   1250.9917
  1251.5000     34.2892      0.0000     19.8553    265.7716     26.3324     25.9894     25.4298     26.0440     26.2809     26.7637     26.7204     27.0299     63.7175    273.2863   1251.5000
  1252.0000     39.5753      0.0000     19.5774    265.8795     25.6920     25.3568     25.0952     25.7291     25.9458     26.6450     26.7907     27.1042     63.6821    273.2863   1252.0000
  1252.5000     40.5781      0.0000     19.4497    265.9227     25.5564     25.2594     24.8136     25.1101     25.5468     26.3887     26.6954     27.1781     63.7972    273.2863   1252.4917
  1253.0000     40.4426      0.0000     19.1272    266.0297     25.2738     25.0669     24.3991     24.5854     25.0336     25.8492     26.1848     26.5641     63.4847    273.2863   1253.0000
  1253.5000     43.0845      0.0000     18.8675    266.1509     24.8843     24.7349     24.2240     24.4896     24.8172     25.3976     25.7556     25.9336     63.7318    273.2863   1253.4917
  1254.0000     46.8450      0.0000     18.5667    266.2221     24.2994     24.3625     24.1434     24.5324     24.7004     24.9723     25.3246     25.4408     63.5977    273.2863   1254.0000
  1254.5000     49.7862      0.0000     18.4941    266.2598     23.7590     24.0527     24.1531     24.6669     24.9043     25.0798     24.9439     24.9565     63.7018    274.8660   1254.4917
  1255.0000     50.4320      0.0000     18.4525    266.2957     23.7488     23.8453     24.0837     24.7318     24.8976     25.0762     24.7173     24.7739     63.7343    274.8660   1255.0000
  1255.5000     47.6079      0.0000     18.2902    266.3658     23.8217     23.8641     24.0089     24.2910     24.3634     24.5739     24.6293     24.7021     63.7767    278.0253   1255.5000
  1256.0000     45.7294      0.0000     18.3034    266.3890     24.2365     24.3150     24.0141     23.8211     23.8491     24.1742     24.4437     24.8007     63.8324    278.0253   1255.9917
  1256.5000     40.9542      0.0000     18.3087    266.3884     24.7368     24.6830     24.0695     23.6524     23.6708     24.0529     24.2637     24.9642     63.6801    278.0253   1256.5000
  1257.0000     35.5107      0.0000     18.3876    266.3585     25.0158     24.8675     24.0743     23.5585     23.3815     24.0647     24.4990     25.1553     63.7244    278.0253   1256.9917
  1257.5000     34.3205      0.0000     18.2779    266.3555     24.8998     24.7696     23.7719     23.3095     23.0021     23.6467     24.3374     24.9538     63.7099    276.4456   1257.4917
  1258.0000     36.1180      0.0000     18.0288    266.4058     24.3380     24.2383     23.1825     22.9976     22.8638     23.3609     24.0119     24.7811     63.6262    276.4456   1257.9917
  1258.5000     35.2768      0.0000     17.9737    266.4392     24.1502     23.9062     22.8550     23.0045     23.2602     23.7194     24.1021     24.8782     63.8148    274.8660   1258.4917
  1259.0000     26.9927      0.0000     18.2772    266.3278     24.3413     23.9198     23.0880     23.4190     23.8768     24.3377     24.6137     25.0667     63.8362    274.8660   1258.9917
  1259.5000     18.4343      0.0000     18.6250    266.2012     24.4375     24.3459     23.8210     24.0045     24.1864     24.5333     24.5535     24.8205     63.8362    274.8660   1259.4917
  1260.0000     15.5416      0.0000     18.7535    266.1593     24.2576     24.5662     24.3415     24.6231     24.5509     24.8275     24.5695     24.5944     63.8758    274.8660   1260.0000
  1260.5000     14.8490      0.0000     19.1908    266.0106     24.7445     24.8669     24.8833     25.5881     25.4196     25.6617     25.4040     25.3430     63.6713    274.8660   1260.4917
  1261.0000     15.3563      0.0000     19.5726    265.9490     25.5009     25.6621     25.6414     26.4874     26.2624     26.5726     26.3541     26.1150     63.7614    278.0253   1261.0000
  1261.5000     16.4763      0.0000     19.9849    265.9236     26.1854     26.5349     26.2850     27.0148     26.8453     27.2541     27.0073     26.6009     63.5456    279.6049   1261.4917
  1262.0000     19.9186      0.0000     20.9244    265.7444     27.4737     27.6596     27.5120     28.0084     28.0277     28.6214     28.1052     27.8041     63.6388    279.6049   1261.9917
  1262.5000     30.4012      0.0000     21.5962    265.5490     28.4201     28.2668     28.0555     28.4438     28.8917     29.7302     29.1702     29.1614     63.7640    279.6049   1262.5000
  1263.0000     40.7521      0.0000     21.5904    265.5055     28.3329     28.1797     27.6092     27.9286     28.6147     29.8115     29.3482     29.2923     63.8368    279.6049   1263.0000
  1263.5000     43.9562      0.0000     21.3259    265.5730     27.9166     27.8642     27.3281     27.6413     28.3588     29.3961     28.8710     28.6007     63.6076    279.6049   1263.5000
  1264.0000     36.1129      0.0000     20.7768    265.7551     27.0811     27.1142     26.6798     27.0936     27.9589     28.4996     27.9506     27.6879     63.8071    278.0253   1264.0000
  1264.5000     21.5578      0.0000     20.4596    265.7999     26.8263     26.7754     26.1673     26.5884     27.4142     27.8750     27.5842     27.5521     63.8413    278.0253   1264.5000
  1265.0000     15.3661      0.0000     19.9786    265.9444     26.5672     26.2701     25.5115     25.9443     26.5819     27.0478     27.1592     27.2466     63.9801    278.0253   1264.9917
  1265.5000     18.1304      0.0000     18.8852    266.2874     25.2497     24.8990     24.2273     24.3900     24.9943     25.4189     25.6553     25.8098     63.8153    279.6049   1265.5000
  1266.0000     22.7341      0.0000     17.9853    266.5434     24.1478     23.8680     23.1275     22.9265     23.5353     23.8678     24.0424     24.4475     63.7399    278.0253   1265.9917
  1266.5000     26.9126      0.0000     17.4734    266.7555     23.5397     23.5163     22.5314     22.2312     22.6722     22.9591     23.0339     23.5505     63.8125    278.0253   1266.4917
