~Version Information
VERS.                      2.0: CWLS Log ASCII Standard - VERSION 2.0
WRAP.                       NO: One line per depth step
~Well Information Block
STRT.FT               -14.0000: START DEPTH
STOP.FT              9405.0000: STOP DEPTH
STEP.FT                 0.5000: STEP
NULL.                -999.2500: NULL VALUE
COMP.          Chesapeake Energy: COMPANY
WELL.          Brand 32 - 8 -2 1H: WELL
FLD.                     Utica: FIELD
LOC.           Lat: 40.487717--Long: -80.733858----: LOCATION
CNTY.                Jefferson: COUNTY
SRVC.      NINE ENERGY SERVICE: SERVICE COMPANY
DATE.          Mon Nov 21 10-28-03 2016: LOG DATE
UWI.              34-081-20629: UNIQUE WELL ID
STAT.                       OH: STATE
~Curve Information Block
DEPT.FT            0 000 00 00: Depth
GR.GAPI                       : Gamma Ray
CCL.                          : Casing Collar Locator
AMP3FT.MV                     : AMP3FT Amplitude
TT3FT.USEC                    : 3FT Travel Time
AMPS1.                        : AMPS1 Amplitude
AMPS2.                        : AMPS2 Amplitude
AMPS3.                        : AMPS3 Amplitude
AMPS4.                        : AMPS4 Amplitude
AMPS5.                        : AMPS5 Amplitude
AMPS6.                        : AMPS6 Amplitude
AMPS7.                        : AMPS7 Amplitude
AMPS8.                        : AMPS8 Amplitude
Temp.DEGF                     : Integral Temperature
LTEN.LB                       : Surface Line Tension
ADPTH.FT                      : Actual Depth
~Parameter Information Block
TDEPTH.FT               0.0000: Total Depth
~A  Depth        GR         CCL        AMP3FT      TT3FT       AMPS1       AMPS2       AMPS3       AMPS4       AMPS5       AMPS6       AMPS7       AMPS8        Temp        LTEN       ADPTH    
# ...
  3115.0000     67.9335      0.0000     55.0247    263.0473     77.0392     68.0151     66.9302     70.4064     74.8799     84.5247     96.7401     93.7311     91.0629    538.6697   3114.9834
  3115.5000     75.1867      0.0000     55.4504    263.0187     77.4378     67.8397     66.9209     70.7757     75.5295     85.7944     98.9863     95.7508     91.3575    541.8290   3115.5000
  3116.0000     84.4539      0.0000     55.3662    263.1036     78.2524     68.1540     66.6119     69.9943     74.3845     85.1797     98.8445     96.5256     90.9491    541.8290   3116.0000
  3116.5000     81.9579      0.0000     56.1473    263.1616     79.1481     69.8026     68.4105     71.7584     75.2585     85.4568     98.3376     96.1308     91.1846    544.9883   3116.5000
  3117.0000     74.6487      0.0000     57.3234    263.1360     78.7962     71.4162     71.6049     75.3658     78.0633     87.3331     98.0476     94.6172     91.0313    541.8290   3116.9917
  3117.5000     76.9447      0.0000     57.7216    263.1331     78.1123     71.6381     73.0979     77.5851     80.4444     89.1077     98.3004     93.8504     91.1637    522.8730   3117.5000
  3118.0000     87.4115      0.0000     55.7266    263.1682     76.3793     69.4047     70.8025     75.5689     79.4491     88.0102     95.9792     91.6930     91.1965    521.2934   3118.0000
  3118.5000     87.5046      0.0000     52.9453    263.1960     74.5741     66.1696     66.1105     70.5301     75.0320     83.1351     92.1768     89.8465     91.3331    521.2934   3118.5000
  3119.0000     76.7608      0.0000     51.6203    263.1953     75.2935     64.8635     63.0500     66.7492     70.9459     79.2231     91.1899     91.2814     91.2142    521.2934   3119.0000
  3119.5000     71.3020      0.0000     51.6905    263.1765     76.3568     64.5902     61.9450     64.7578     68.5436     78.0648     92.6360     93.6316     91.2466    521.2934   3119.5000
  3120.0000     70.5699      0.0000     52.1517    263.1752     76.1938     64.6783     62.2062     64.7584     68.3250     78.5686     93.6938     94.1251     91.3645    522.8730   3120.0000
  3120.5000     70.4072      0.0000     53.0397    263.1330     76.2407     66.5865     64.8822     67.4273     70.2872     79.8282     93.2932     92.7484     91.3692    521.2934   3120.4917
  3121.0000     75.7667      0.0000     53.7507    263.1190     76.3937     67.6878     66.6657     69.5139     72.4571     81.5861     93.3734     92.1433     91.4177    530.7714   3121.0000
  3121.5000     80.3897      0.0000     55.4391    263.0133     77.4589     69.3558     69.5626     73.2295     76.8366     85.3668     95.4265     93.4626     90.9386    544.9883   3121.4917
  3122.0000     74.0916      0.0000     57.6795    262.9402     80.1344     72.4753     73.0106     77.3736     81.2798     89.0005     98.4189     96.6200     91.1958    544.9883   3121.9917
  3122.5000     71.4636      0.0000     58.5523    262.9203     82.7472     74.1185     73.7250     78.3163     81.9281     89.5094    100.8136    100.4009     91.2329    538.6697   3122.4917
  3123.0000     70.3548      0.0000     58.5853    262.8795     84.7159     74.3110     72.9335     77.0255     80.4523     88.9604    103.1834    103.8724     91.1111    521.2934   3123.0000
  3123.5000     62.2807      0.0000     57.8775    262.8135     84.5899     72.6930     70.9777     74.9560     78.6191     88.3121    104.6527    105.2143     91.3134    521.2934   3123.4917
  3124.0000     56.4250      0.0000     57.4258    262.7909     83.6900     70.8163     69.1419     73.4137     77.5530     88.3868    105.9055    105.3470     91.3135    519.7137   3123.9917
  3124.5000     56.6869      0.0000     58.2376    262.8904     84.7878     72.0374     70.1355     73.6315     77.7176     89.3839    106.9198    106.1603     91.3169    519.7137   3124.4917
  3125.0000     60.4350      0.0000     59.5376    262.8936     86.2165     74.6274     73.1370     76.1949     79.2247     90.7207    107.8940    107.1900     91.3016    518.1341   3124.9917
  3125.5000     59.8493      0.0000     60.4506    262.8289     86.3193     76.4252     75.9515     79.4200     81.6553     91.7145    108.1636    106.9262     91.3988    516.5544   3125.5000
  3126.0000     59.4103      0.0000     59.8344    262.7859     84.4189     75.3787     75.6418     79.9635     82.6064     91.6908    107.0045    104.7147     91.0420    518.1341   3125.9917
  3126.5000     62.0681      0.0000     58.2870    262.8096     82.1841     72.9424     73.1216     77.8029     81.1499     90.3306    105.3592    102.4156     91.1697    518.1341   3126.4917
  3127.0000     56.0440      0.0000     57.1361    262.8486     80.8453     71.2189     71.3290     75.6767     78.9946     88.9682    105.0196    101.5338     91.2971    546.5680   3127.0000
  3127.5000     52.1695      0.0000     55.8955    262.9032     78.8419     68.7681     68.6853     72.8562     76.4602     88.3932    105.9029    101.0643     91.4474    548.1477   3127.4917
  3128.0000     64.8409      0.0000     55.1886    263.0004     77.4867     67.2829     66.7263     70.6877     74.7553     88.7206    106.6447    100.7175     91.3322    549.7274   3128.0000
  3128.5000     76.8968      0.0000     55.0436    263.0743     75.9091     66.8806     66.3589     70.1799     74.5314     89.6595    105.8693     98.7331     91.3547    538.6697   3128.5000
  3129.0000     73.9704      0.0000     55.1896    263.0034     74.0913     66.8274     66.6894     70.9026     75.5509     90.3596    103.8743     95.6247     91.4440    529.1917   3129.0000
  3129.5000     65.3817      0.0000     54.2029    262.8285     71.5409     66.0437     66.6849     71.2008     75.6433     88.3350     98.7966     90.6643     91.4573    530.7714   3129.5000
  3130.0000     62.1053      0.0000     49.1927    263.2759     64.6155     61.1856     62.7675     67.3821     71.3463     80.7037     87.4984     79.9381     91.3440    530.7714   3129.9834
  3130.5000     59.4971      0.0000     40.5728    265.3677     52.7458     50.6415     52.1996     56.6554     60.3263     67.4884     72.9306     65.0568     91.4886    532.3511   3130.5000
  3131.0000     53.3938      0.0000     33.2534    268.2029     43.2193     40.8726     42.1014     46.3872     49.8098     57.5229     64.0141     55.5255     91.5167    532.3511   3131.0000
  3131.5000     54.8756      0.0000     28.3865    268.4143     36.6530     34.6893     35.8804     39.5509     42.1050     48.4031     54.0396     47.3329     91.5986    530.7714   3131.5000
  3132.0000     65.8745      0.0000     27.2422    267.7813     35.9133     33.4166     34.0404     36.9180     39.3966     44.9494     50.1883     45.8831     91.5223    532.3511   3131.9917
  3132.5000     74.8932      0.0000     23.6791    268.6770     33.8798     29.7856     29.3008     30.8173     32.2065     36.9752     43.3624     42.5064     91.4169    532.3511   3132.4917
  3133.0000     74.8932      0.0000     19.3560    270.4624     29.2567     24.9484     24.0292     24.7214     25.2652     29.0306     34.9926     35.5614     91.3619    530.7714   3133.0000
  3133.5000     69.9240      0.0000     18.5535    271.0080     27.9277     24.4084     23.5408     24.3954     24.5663     27.2732     32.4566     33.2142     91.4608    530.7714   3133.4917
  3134.0000     61.2987      0.0000     20.1774    268.2350     29.8403     26.7661     26.0578     27.3150     27.4735     29.7470     35.4299     35.8147     91.5833    533.9307   3134.0000
  3134.5000     56.7993      0.0000     21.9085    265.7198     32.4189     29.2093     28.5332     30.0342     30.6619     33.4274     39.4574     38.9612     91.4176    533.9307   3134.4917
  3135.0000     61.8471      0.0000     23.6169    264.5549     34.8500     31.0843     30.2320     32.3203     33.8942     37.5896     43.8824     42.8054     91.3877    533.9307   3135.0000
  3135.5000     62.6330      0.0000     24.2770    264.3317     35.8803     31.0215     29.8799     32.1502     33.9254     38.3842     46.2447     45.7578     91.3673    535.5104   3135.4917
