~Version Information
VERS.                      2.0: CWLS Log ASCII Standard - VERSION 2.0
WRAP.                       NO: One line per depth step
~Well Information Block
STRT.FT               -14.0000: START DEPTH
STOP.FT              9405.0000: STOP DEPTH
STEP.FT                 0.5000: STEP
NULL.                -999.2500: NULL VALUE
COMP.          Chesapeake Energy: COMPANY
WELL.          Brand 32 - 8 -2 1H: WELL
FLD.                     Utica: FIELD
LOC.           Lat: 40.487717--Long: -80.733858----: LOCATION
CNTY.                Jefferson: COUNTY
SRVC.      NINE ENERGY SERVICE: SERVICE COMPANY
DATE.          Mon Nov 21 10-28-03 2016: LOG DATE
UWI.              34-081-20629: UNIQUE WELL ID
STAT.                       OH: STATE
~Curve Information Block
DEPT.FT            0 000 00 00: Depth
GR.GAPI                       : Gamma Ray
CCL.                          : Casing Collar Locator
AMP3FT.MV                     : AMP3FT Amplitude
TT3FT.USEC                    : 3FT Travel Time
AMPS1.                        : AMPS1 Amplitude
AMPS2.                        : AMPS2 Amplitude
AMPS3.                        : AMPS3 Amplitude
AMPS4.                        : AMPS4 Amplitude
AMPS5.                        : AMPS5 Amplitude
AMPS6.                        : AMPS6 Amplitude
AMPS7.                        : AMPS7 Amplitude
AMPS8.                        : AMPS8 Amplitude
Temp.DEGF                     : Integral Temperature
LTEN.LB                       : Surface Line Tension
ADPTH.FT                      : Actual Depth
~Parameter Information Block
TDEPTH.FT               0.0000: Total Depth
~A  Depth        GR         CCL        AMP3FT      TT3FT       AMPS1       AMPS2       AMPS3       AMPS4       AMPS5       AMPS6       AMPS7       AMPS8        Temp        LTEN       ADPTH    
# ...
  8113.0000     65.4421      0.0000     29.6657    262.7339     40.5635     35.2713     33.5539     35.0932     39.2615     48.0926     53.4274     49.5779    160.0518   1276.3723   8112.9917
  8113.5000     69.4694      0.0000     31.2087    262.6907     43.0063     37.4334     35.4074     36.8183     41.6266     51.1410     56.8561     52.5432    160.2299   1274.7927   8113.4917
  8114.0000     61.6013      0.0000     33.4309    262.4933     45.7189     40.0446     38.1454     39.9188     44.8743     54.8141     60.9968     55.9946    160.1001   1249.5181   8113.9917
  8114.5000     56.6726      0.0000     35.7309    262.3015     48.7080     42.7313     40.7099     42.6570     47.8985     58.4401     65.1957     59.6924    159.9710   1249.5181   8114.4917
  8115.0000     64.8674      0.0000     37.6671    262.2191     50.8252     44.9429     42.6679     44.8037     50.4048     61.6632     68.8489     62.9569    159.9487   1270.0537   8114.9917
  8115.5000     73.2550      0.0000     39.1974    262.1213     51.8918     46.3349     44.5627     46.8639     52.2562     63.6170     71.2722     65.4635    160.1410   1271.6334   8115.5000
  8116.0000     80.7530      0.0000     40.1850    262.0686     52.5450     47.0893     46.3430     48.7516     53.8185     64.5018     72.1787     67.0202    159.9263   1270.0537   8115.9917
  8116.5000     82.7400      0.0000     41.6609    261.9686     55.7913     49.6021     48.6289     51.0869     55.9767     66.7236     74.9399     70.3136    159.9343   1271.6334   8116.5000
  8117.0000     71.6758      0.0000     42.4711    261.8931     58.8282     51.8669     49.8834     51.6417     56.3647     67.4330     76.6465     72.6474    159.5405   1271.6334   8117.0000
  8117.5000     61.5857      0.0000     41.9380    261.8331     58.6554     52.0153     49.5795     50.9457     55.0434     65.8700     75.3073     71.6572    159.8299   1271.6334   8117.5000
  8118.0000     57.2680      0.0000     41.3380    261.9310     57.0039     50.9197     48.7486     50.5477     54.6042     65.6979     74.5112     70.0326    160.0904   1270.0537   8117.9917
  8118.5000     54.1356      0.0000     39.9011    262.0157     53.9192     48.4381     47.1479     49.2362     53.2658     63.5608     71.1302     66.2981    160.0296   1260.5757   8118.5000
  8119.0000     54.3925      0.0000     37.3199    262.1798     49.4153     44.5152     44.1465     46.6901     50.6046     59.7505     65.7809     60.9266    159.5690   1281.1113   8119.0000
  8119.5000     57.3960      0.0000     34.9442    262.2380     44.9770     40.9448     41.6721     45.3298     49.0806     56.2703     60.1749     55.4727    160.1992   1281.1113   8119.5000
  8120.0000     58.7712      0.0000     32.7995    262.2183     41.8202     38.3050     39.8274     43.8168     47.1355     52.8299     55.4314     51.1536    160.0000   1270.0537   8119.9917
  8120.5000     59.0458      0.0000     31.1093    262.3776     40.1087     36.6947     37.8867     41.3740     44.3841     49.5696     52.1643     48.8708    160.4445   1270.0537   8120.5000
  8121.0000     58.4416      0.0000     29.7358    262.5603     38.5014     34.9557     35.8621     39.0972     41.7941     46.3255     49.3853     46.8351    159.8522   1281.1113   8120.9917
  8121.5000     61.9505      0.0000     27.7225    262.7072     36.7550     33.1310     34.1644     37.1270     38.6996     42.5819     46.0055     44.3338    159.9647   1285.8503   8121.5000
  8122.0000     66.3881      0.0000     25.2067    262.9043     34.7942     31.1348     31.6669     33.6855     34.7084     38.5059     42.5934     41.8258    159.8694   1271.6334   8122.0000
  8122.5000     70.0266      0.0000     23.7255    263.0085     33.5812     29.0397     28.7478     30.1783     31.9876     36.6370     41.5833     40.9871    159.8898   1258.9961   8122.5000
  8123.0000     64.8047      0.0000     23.9079    263.0366     34.0717     28.6486     27.4167     28.6654     31.0155     36.8167     42.5610     41.8238    160.1343   1284.2706   8123.0000
  8123.5000     55.0781      0.0000     24.8319    263.1437     34.9432     29.7103     27.8028     28.9183     31.4440     37.3053     42.6754     41.8807    160.1667   1300.0673   8123.5000
  8124.0000     58.1523      0.0000     26.0658    263.0191     36.2271     32.3298     30.4854     31.3299     33.4126     38.3061     42.6666     41.9001    160.0079   1277.9520   8123.9917
  8124.5000     69.9640      0.0000     26.9550    262.7986     36.8778     34.4880     33.2808     33.6070     35.0859     39.5608     43.3220     42.2678    160.5020   1271.6334   8124.4917
  8125.0000     76.0713      0.0000     27.7607    262.8241     37.1390     35.0564     34.2403     34.6885     36.4837     41.4383     45.1731     43.5848    160.1835   1268.4740   8125.0000
  8125.5000     73.3181      0.0000     27.8043    262.9477     36.9137     34.6048     33.8957     34.7418     36.8613     42.4981     46.6454     44.1989    160.0175   1287.4301   8125.4917
  8126.0000     69.9781      0.0000     26.9303    263.0875     35.4753     32.6571     32.7441     34.2155     36.4434     42.4274     46.1827     43.0917    160.3195   1289.0096   8126.0000
  8126.5000     70.8933      0.0000     27.1463    262.9591     35.6361     32.2444     32.4569     34.2993     36.7171     42.7153     46.1450     43.2074    160.2828   1289.0096   8126.5000
  8127.0000     68.4670      0.0000     27.7518    262.7184     37.1819     33.3190     32.5574     33.6139     36.3594     42.9404     47.3652     44.9734    160.1022   1284.2706   8126.9917
  8127.5000     55.9296      0.0000     27.9908    262.7621     38.5422     34.4035     32.8857     33.4204     36.3022     43.0095     47.9354     46.1392    160.3247   1296.9080   8127.4917
  8128.0000     46.6876      0.0000     28.3265    262.9163     39.0962     35.2170     33.6393     34.0892     36.5657     42.9697     47.5398     46.1839    160.2134   1296.9080   8127.9917
  8128.5000     48.8604      0.0000     29.3722    262.8024     40.0503     36.5518     35.4136     36.1707     38.3067     44.9270     49.0128     47.4373    160.1755   1296.9080   8128.4917
  8129.0000     54.3337      0.0000     31.2280    262.5511     41.9862     37.9666     36.9096     38.2922     41.5687     48.9106     52.8755     50.1327    159.8997   1284.2706   8128.9917
  8129.5000     55.7746      0.0000     32.6220    262.5072     43.5330     38.5904     37.3178     39.1653     43.6229     52.0897     56.1812     52.5888    160.1655   1274.7927   8129.5000
  8130.0000     57.2538      0.0000     32.4800    262.7636     43.5940     37.6125     36.0786     38.0647     42.8252     52.1809     56.6925     53.5685    160.1667   1266.8944   8129.9917
  8130.5000     56.4210      0.0000     31.5863    263.0849     42.7003     36.4315     34.5859     36.8346     41.3424     50.0241     54.5400     52.3570    160.1875   1266.8944   8130.4917
  8131.0000     53.2814      0.0000     29.8337    263.3047     40.4122     35.1868     33.4657     36.0013     39.7895     45.6996     49.1739     47.9540    160.2997   1268.4740   8130.9917
  8131.5000     51.1954      0.0000     28.2102    263.5010     38.4353     34.2148     32.2889     34.6155     37.5713     41.2536     44.1461     43.9037    160.3530   1284.2706   8131.4917
  8132.0000     46.3142      0.0000     27.3425    263.7332     37.5333     33.5230     31.2820     33.1685     36.0566     39.4246     42.3901     42.6051    159.7992   1284.2706   8131.9917
  8132.5000     43.0446      0.0000     26.0371    264.0240     35.6708     31.7536     30.1626     31.8942     34.4518     37.9743     40.6877     40.4727    160.2979   1284.2706   8132.5000
  8133.0000     54.2908      0.0000     24.4683    264.2363     32.8772     29.2078     28.3231     29.9079     32.2696     35.8581     38.2011     37.4582    160.3017   1284.2706   8133.0000
  8133.5000     67.4755      0.0000     24.1834    264.0992     31.9072     28.9764     28.6978     30.2880     32.4273     35.7096     37.1359     36.0898    160.2242   1284.2706   8133.5000
