~Version Information
VERS.                      2.0: CWLS Log ASCII Standard - VERSION 2.0
WRAP.                       NO: One line per depth step
~Well Information Block
STRT.FT               -14.0000: START DEPTH
STOP.FT              9405.0000: STOP DEPTH
STEP.FT                 0.5000: STEP
NULL.                -999.2500: NULL VALUE
COMP.          Chesapeake Energy: COMPANY
WELL.          Brand 32 - 8 -2 1H: WELL
FLD.                     Utica: FIELD
LOC.           Lat: 40.487717--Long: -80.733858----: LOCATION
CNTY.                Jefferson: COUNTY
SRVC.      NINE ENERGY SERVICE: SERVICE COMPANY
DATE.          Mon Nov 21 10-28-03 2016: LOG DATE
UWI.              34-081-20629: UNIQUE WELL ID
STAT.                       OH: STATE
~Curve Information Block
DEPT.FT            0 000 00 00: Depth
GR.GAPI                       : Gamma Ray
CCL.                          : Casing Collar Locator
AMP3FT.MV                     : AMP3FT Amplitude
TT3FT.USEC                    : 3FT Travel Time
AMPS1.                        : AMPS1 Amplitude
AMPS2.                        : AMPS2 Amplitude
AMPS3.                        : AMPS3 Amplitude
AMPS4.                        : AMPS4 Amplitude
AMPS5.                        : AMPS5 Amplitude
AMPS6.                        : AMPS6 Amplitude
AMPS7.                        : AMPS7 Amplitude
AMPS8.                        : AMPS8 Amplitude
Temp.DEGF                     : Integral Temperature
LTEN.LB                       : Surface Line Tension
ADPTH.FT                      : Actual Depth
~Parameter Information Block
TDEPTH.FT               0.0000: Total Depth
~A  Depth        GR         CCL        AMP3FT      TT3FT       AMPS1       AMPS2       AMPS3       AMPS4       AMPS5       AMPS6       AMPS7       AMPS8        Temp        LTEN       ADPTH    
# ...
  2485.0000     64.0530      0.0000     66.7891    264.4015     87.7390     81.7657     80.1702     86.4569     92.1080     99.8157    103.1893     99.3578     80.4486    429.6729   2485.0000
  2485.5000     64.2070      0.0000     67.9470    264.3947     89.4904     83.1364     81.3692     87.8751     94.0949    102.3149    105.1210    101.1177     80.3735    428.0933   2485.4917
  2486.0000     74.6597      0.0000     70.1840    264.2982     92.8770     86.6794     84.5563     91.0995     97.3871    105.8522    108.1796    104.0463     80.5115    428.0933   2486.0000
  2486.5000     86.5754      0.0000     71.6633    264.2169     94.2889     88.9167     87.4405     94.2002     99.8882    107.4210    109.2967    105.2596     80.5550    429.6729   2486.5000
  2487.0000     85.2585      0.0000     71.1383    264.1505     92.4786     87.6671     87.4000     94.6969    100.1191    106.2229    108.1057    103.8413     80.4224    429.6729   2486.9917
  2487.5000     75.4313      0.0000     69.7600    264.1494     89.6508     84.8951     85.7522     93.7114     99.4137    104.5921    105.8887    100.9746     80.3842    429.6729   2487.5000
  2488.0000     70.1038      0.0000     68.7693    264.2027     87.9707     83.1469     84.4133     92.7984     99.0712    104.1420    104.3545     99.0440     80.3681    429.6729   2488.0000
  2488.5000     77.2077      0.0000     68.5021    264.2061     87.8307     82.8162     83.9772     92.6356     99.2502    104.4305    104.3564     98.9458     80.2711    429.6729   2488.4917
  2489.0000     82.4543      0.0000     69.0941    264.1464     89.1294     83.3193     84.0925     92.9978     99.5323    105.1003    105.9887    100.6967     80.4682    431.2526   2488.9917
  2489.5000     71.3389      0.0000     69.5407    264.0297     90.0129     84.0937     84.6541     93.0369     99.2309    104.8739    106.7355    101.8457     80.6881    431.2526   2489.5000
  2490.0000     60.1024      0.0000     68.6672    263.9746     88.4053     83.3415     84.3743     92.0223     97.9510    103.1768    104.7962     99.9147     80.1988    432.8323   2490.0000
  2490.5000     60.2473      0.0000     67.4714    264.1071     85.6794     82.0673     84.0287     91.4879     96.8363    101.5619    101.6719     96.2707     80.4980    431.2526   2490.4917
  2491.0000     62.7175      0.0000     67.1864    264.1683     84.3504     81.3976     84.0658     92.1577     97.0778    101.2916    100.4690     94.6649     80.3427    429.6729   2490.9917
  2491.5000     69.5221      0.0000     66.8834    264.1855     83.9040     80.5011     83.2492     91.7711     97.1119    101.2051    100.4704     94.5595     80.5936    429.6729   2491.4917
  2492.0000     77.1194      0.0000     66.8716    264.1780     84.7238     80.9109     83.2243     91.2952     96.6326    101.0879    100.8653     95.3514     80.7664    429.6729   2491.9917
  2492.5000     82.0665      0.0000     66.7881    264.1247     84.6647     80.8152     83.1606     91.1148     96.2443    100.6793    100.7542     95.3956     80.5322    431.2526   2492.4917
  2493.0000     79.3000      0.0000     66.6534    264.0226     84.1293     80.1062     82.6495     90.9738     96.3649    100.6858    100.6105     94.9994     80.4006    432.8323   2492.9917
  2493.5000     73.0364      0.0000     66.4467    263.9839     84.0671     79.4964     81.5706     90.1418     96.0231    100.5393    100.6086     94.9188     80.4803    432.8323   2493.4917
  2494.0000     75.3677      0.0000     66.5442    264.0484     84.3751     79.5564     80.9571     89.3386     95.7227    100.9564    101.2219     95.5893     80.5389    432.8323   2494.0000
  2494.5000     74.4369      0.0000     66.0147    264.0873     84.2339     79.1254     79.9348     87.7097     93.9675    100.0169    100.8506     95.4933     80.4928    431.2526   2494.4917
  2495.0000     71.2460      0.0000     64.5637    264.1660     84.0478     78.1120     78.0320     84.5540     90.0713     97.1986     99.7991     95.1746     80.5413    432.8323   2494.9917
  2495.5000     74.7724      0.0000     63.8352    264.1957     84.2007     77.8880     77.1123     82.6107     87.4599     95.3549     99.2629     95.1530     80.5791    432.8323   2495.4917
  2496.0000     75.5041      0.0000     62.2330    264.1446     82.1457     76.2518     75.1628     80.1359     85.1227     92.5413     96.2788     92.4610     80.7140    432.8323   2496.0000
  2496.5000     68.6821      0.0000     57.7149    265.2674     76.5429     71.5950     70.7784     75.8691     80.8627     86.7107     89.4310     85.6772     80.6194    432.8323   2496.5000
  2497.0000     64.5272      0.0000     49.3179    268.3487     67.4650     64.0809     63.9964     68.4232     72.0138     76.1308     77.6826     74.2422     80.6762    432.8323   2496.9917
  2497.5000     65.9669      0.0000     42.9910    269.4242     60.1533     57.2304     57.1808     60.6621     63.5290     66.8354     68.5654     65.8952     80.4419    432.8323   2497.4917
  2498.0000     62.3265      0.0000     42.8976    268.9788     59.2895     55.5252     55.1560     58.2703     61.7333     65.1990     67.9531     66.0426     80.6412    431.2526   2497.9917
  2498.5000     61.0046      0.0000     41.9882    268.8933     58.3634     54.8746     53.9011     55.9476     58.7178     62.5018     66.1851     65.0335     80.6981    431.2526   2498.4917
  2499.0000     61.6768      0.0000     40.4857    269.2086     56.9355     54.2950     52.9474     54.4396     56.1567     60.0452     64.1524     63.0621     80.5123    431.2526   2498.9917
  2499.5000     68.0525      0.0000     45.0525    268.2313     62.4304     59.0009     57.3284     59.6840     62.1287     67.0498     71.9364     70.3024     80.6845    431.2526   2499.5000
  2500.0000     75.3272      0.0000     52.9594    265.4080     71.4634     66.6060     65.0680     68.4871     72.2255     78.4116     83.8208     81.3334     80.5568    431.2526   2499.9917
  2500.5000     72.5866      0.0000     58.4129    264.2258     77.5604     72.3828     71.4746     75.6194     79.7691     86.6111     91.3455     87.9652     80.6612    431.2526   2500.5000
  2501.0000     64.2767      0.0000     60.7461    264.1364     79.6772     74.7474     74.4254     79.4104     83.7607     90.8054     94.8090     90.4684     80.6376    431.2526   2501.0000
  2501.5000     63.7509      0.0000     61.0723    264.0844     79.6910     74.4344     73.9987     79.4058     84.6376     92.3168     96.4429     91.4438     80.8374    431.2526   2501.5000
  2502.0000     69.5468      0.0000     61.0684    264.0733     80.1224     74.4977     73.4822     78.4833     84.0027     92.9651     97.6571     92.5269     80.5367    431.2526   2501.9917
  2502.5000     68.1785      0.0000     60.6112    264.0636     79.8951     73.9501     72.1957     76.5562     82.4141     92.7027     98.6001     93.2884     80.7717    431.2526   2502.5000
  2503.0000     64.3307      0.0000     59.9524    264.0690     78.8451     72.4750     70.1212     74.2632     80.6648     91.9987     98.7987     92.8874     80.7772    431.2526   2503.0000
  2503.5000     64.5903      0.0000     57.8299    264.1509     75.8779     70.4672     68.4937     72.3499     77.6516     87.5364     93.3999     87.8554     80.7825    431.2526   2503.4917
  2504.0000     63.9372      0.0000     51.3104    264.4994     67.0328     63.6287     62.5363     65.6326     69.4079     76.4506     80.5197     76.0873     80.6891    432.8323   2503.9917
  2504.5000     63.7108      0.0000     46.2071    264.7054     60.6755     58.2633     57.4244     59.8658     62.7173     67.9411     71.3104     67.7611     80.7015    432.8323   2504.4917
  2505.0000     66.0308      0.0000     46.3448    264.5622     61.6396     58.6594     57.2511     59.9895     62.8074     67.8264     71.7043     68.6441     80.6658    432.8323   2505.0000
  2505.5000     64.4193      0.0000     46.1224    264.5087     62.1833     58.3019     56.3527     58.9817     62.0026     67.2822     72.5461     70.0009     80.7664    432.8323   2505.4917
