~Version Information
VERS.                      2.0: CWLS Log ASCII Standard - VERSION 2.0
WRAP.                       NO: One line per depth step
~Well Information Block
STRT.FT               -14.0000: START DEPTH
STOP.FT              9405.0000: STOP DEPTH
STEP.FT                 0.5000: STEP
NULL.                -999.2500: NULL VALUE
COMP.          Chesapeake Energy: COMPANY
WELL.          Brand 32 - 8 -2 1H: WELL
FLD.                     Utica: FIELD
LOC.           Lat: 40.487717--Long: -80.733858----: LOCATION
CNTY.                Jefferson: COUNTY
SRVC.      NINE ENERGY SERVICE: SERVICE COMPANY
DATE.          Mon Nov 21 10-28-03 2016: LOG DATE
UWI.              34-081-20629: UNIQUE WELL ID
STAT.                       OH: STATE
~Curve Information Block
DEPT.FT            0 000 00 00: Depth
GR.GAPI                       : Gamma Ray
CCL.                          : Casing Collar Locator
AMP3FT.MV                     : AMP3FT Amplitude
TT3FT.USEC                    : 3FT Travel Time
AMPS1.                        : AMPS1 Amplitude
AMPS2.                        : AMPS2 Amplitude
AMPS3.                        : AMPS3 Amplitude
AMPS4.                        : AMPS4 Amplitude
AMPS5.                        : AMPS5 Amplitude
AMPS6.                        : AMPS6 Amplitude
AMPS7.                        : AMPS7 Amplitude
AMPS8.                        : AMPS8 Amplitude
Temp.DEGF                     : Integral Temperature
LTEN.LB                       : Surface Line Tension
ADPTH.FT                      : Actual Depth
~Parameter Information Block
TDEPTH.FT               0.0000: Total Depth
~A  Depth        GR         CCL        AMP3FT      TT3FT       AMPS1       AMPS2       AMPS3       AMPS4       AMPS5       AMPS6       AMPS7       AMPS8        Temp        LTEN       ADPTH    
# ...
  1855.0000     18.3620      0.0000     26.2256    264.5821     35.9999     35.3088     34.4847     35.2244     34.7233     34.4965     34.8382     36.2705     70.9272    344.3711   1855.0000
  1855.5000     19.6493      0.0000     26.7069    264.4821     36.2133     35.6322     35.1687     35.9838     35.5469     35.3047     35.4025     36.4442     70.8185    344.3711   1855.4917
  1856.0000     21.3311      0.0000     27.4050    264.4002     37.0532     36.7503     36.2044     37.3786     36.9973     36.5983     36.1469     37.1988     71.2204    344.3711   1856.0000
  1856.5000     25.8910      0.0000     28.1329    264.3726     38.0274     37.8837     37.4278     39.0531     38.4310     37.8827     37.0760     38.2602     71.1503    342.7915   1856.5000
  1857.0000     29.9345      0.0000     28.4607    264.3853     38.4855     38.0899     37.8989     39.6018     38.9213     38.4813     37.6737     38.8089     71.0132    342.7915   1856.9917
  1857.5000     30.3890      0.0000     28.4355    264.4053     38.5604     37.9001     37.5319     38.9851     38.5104     38.2987     38.0018     39.1972     71.1547    342.7915   1857.4917
  1858.0000     30.7428      0.0000     28.6895    264.3672     39.3930     38.5664     37.6127     38.9170     38.2553     38.1318     38.4889     40.1670     71.0884    342.7915   1858.0000
  1858.5000     25.9063      0.0000     28.9259    264.3369     39.9569     39.2329     37.9884     39.2376     38.3338     38.1983     38.6943     40.5738     71.1655    342.7915   1858.5000
  1859.0000     18.6900      0.0000     28.5863    264.3478     39.0883     38.5727     37.7514     39.1254     38.1522     37.6370     37.8855     39.5983     71.2015    342.7915   1858.9917
  1859.5000     15.0785      0.0000     28.0794    264.4205     38.1315     37.6422     37.1506     38.6832     37.8944     37.1821     37.1717     38.5763     71.1871    342.7915   1859.5000
  1860.0000     16.1317      0.0000     27.7581    264.4883     37.7894     37.0419     36.6279     38.0755     37.6256     36.9384     36.7394     37.9889     71.1843    342.7915   1860.0000
  1860.5000     18.2411      0.0000     27.6865    264.4731     37.3517     36.4827     36.0170     37.5597     37.2348     36.7033     36.5946     37.8821     71.0624    342.7915   1860.5000
  1861.0000     18.3091      0.0000     27.4390    264.5109     37.0508     36.1391     35.4044     36.9175     36.8797     36.6045     36.6124     37.9138     71.0884    342.7915   1860.9917
  1861.5000     17.7792      0.0000     26.9440    264.5800     36.6203     35.6406     34.9341     36.2786     36.3964     36.2163     36.1378     37.2705     71.1890    342.7915   1861.4917
  1862.0000     19.9473      0.0000     26.5257    264.6254     36.0229     35.0351     34.4840     35.8128     36.0281     35.8561     35.6955     36.7037     71.2241    344.3711   1862.0000
  1862.5000     25.2213      0.0000     26.5820    264.5901     35.8689     34.9893     34.4800     35.9058     36.1984     35.9593     35.7021     36.8619     71.2322    342.7915   1862.5000
  1863.0000     30.7262      0.0000     26.5206    264.5834     35.7505     34.7631     34.3743     35.8417     36.0859     35.8082     35.5434     36.6836     71.2783    342.7915   1863.0000
  1863.5000     33.1528      0.0000     26.0254    264.6533     35.3545     34.2074     33.8380     35.2301     35.3190     35.0489     34.8458     36.1607     71.1415    342.7915   1863.5000
  1864.0000     33.9431      0.0000     25.3229    264.7614     34.6869     33.4375     32.8027     34.0232     34.1858     34.0299     33.9861     35.4594     71.0158    344.3711   1863.9917
  1864.5000     34.1048      0.0000     24.7311    264.8658     33.9616     32.5278     31.7592     32.6973     32.9915     33.0412     33.2875     34.7890     71.2094    344.3711   1864.4917
  1865.0000     37.0685      0.0000     24.0957    265.0013     33.0359     31.6507     30.8879     31.7023     32.0225     32.0730     32.4002     33.8232     71.2719    342.7915   1864.9917
  1865.5000     40.6642      0.0000     23.2194    265.1515     31.9594     30.7207     29.8000     30.5066     30.6994     30.6402     30.9511     32.4741     71.1952    342.7915   1865.4917
  1866.0000     43.5219      0.0000     22.3518    265.3318     30.7151     29.7562     28.7438     29.5057     29.3876     29.2328     29.5020     30.9805     71.3500    344.3711   1866.0000
  1866.5000     46.3926      0.0000     21.6872    265.4994     29.7871     28.8222     27.9003     28.6377     28.3486     28.3692     29.0036     30.3872     71.2782    344.3711   1866.5000
  1867.0000     47.2016      0.0000     21.2436    265.6164     29.0343     28.1271     27.3693     27.8187     27.4544     27.7570     28.7627     29.9367     71.0644    344.3711   1866.9917
  1867.5000     40.5963      0.0000     20.8120    265.7248     28.3887     27.7845     27.1389     27.5946     27.0642     27.3446     28.3325     29.2079     71.3518    344.3711   1867.5000
  1868.0000     32.9580      0.0000     20.5774    265.7537     27.9699     27.4101     26.8933     27.5647     27.2941     27.1595     27.6060     28.4928     71.1348    347.5305   1867.9917
  1868.5000     29.3083      0.0000     20.6908    265.6981     27.7068     27.0391     26.7613     27.6161     27.8462     27.5338     27.6244     28.2517     71.3572    347.5305   1868.5000
  1869.0000     29.3366      0.0000     20.9014    265.5956     27.7699     26.9536     26.6912     27.4704     28.1018     27.9200     28.1563     28.5545     71.3472    349.1101   1868.9917
  1869.5000     36.7137      0.0000     21.2675    265.4154     28.2313     27.2602     26.6793     27.4150     28.2061     28.6600     28.8585     29.1976     71.0214    349.1101   1869.5000
  1870.0000     45.5391      0.0000     21.5201    265.3943     28.7485     27.6637     26.8171     27.7943     28.7416     29.7176     29.4830     29.7898     71.2611    347.5305   1870.0000
  1870.5000     48.0792      0.0000     21.4389    265.3978     28.8210     27.8644     26.9364     28.0991     29.0239     29.6461     29.3799     29.8337     71.3230    347.5305   1870.5000
  1871.0000     46.7267      0.0000     21.1789    265.4083     28.5215     27.9881     27.2808     28.1356     28.5977     28.5786     28.7531     29.4914     71.3069    349.1101   1870.9917
  1871.5000     43.1009      0.0000     21.1550    265.3626     28.7417     28.3392     27.5685     28.0663     28.1649     27.9404     28.3947     29.4414     71.2843    347.5305   1871.5000
  1872.0000     34.8458      0.0000     21.2608    265.3129     28.8973     28.6145     27.8094     27.8671     27.7440     27.5680     28.0456     29.2223     71.3328    347.5305   1871.9917
  1872.5000     28.7677      0.0000     21.5806    265.2869     29.0562     29.0807     28.5558     28.2860     27.9036     27.7287     28.1800     29.2165     71.2122    349.1101   1872.4917
  1873.0000     28.1782      0.0000     22.4572    265.1772     29.8579     29.8797     29.7405     29.7828     29.5455     29.2335     29.4360     30.0562     71.3743    349.1101   1873.0000
  1873.5000     28.7672      0.0000     23.1491    265.0484     30.2545     30.2087     30.2751     30.9762     31.1796     30.8698     30.4929     30.6723     71.2844    349.1101   1873.4917
  1874.0000     31.3988      0.0000     23.5806    264.9410     30.8746     30.3752     30.2976     31.5543     32.1303     32.0008     31.5459     31.6247     71.3268    352.2694   1873.9917
  1874.5000     33.5613      0.0000     24.2837    264.8585     32.0902     31.2654     30.8797     32.2133     33.1449     33.4357     32.8093     32.8950     71.4805    352.2694   1874.4917
  1875.0000     33.8051      0.0000     25.1770    264.7946     33.5383     32.6303     31.9738     33.3300     34.6133     35.1874     34.1744     34.2160     71.3665    352.2694   1874.9917
  1875.5000     36.3503      0.0000     26.6965    264.6374     36.1639     35.1215     34.0050     35.5289     36.7782     37.3651     36.3563     36.6904     71.1817    352.2694   1875.4917
