~Version Information
VERS.                      2.0: CWLS Log ASCII Standard - VERSION 2.0
WRAP.                       NO: One line per depth step
~Well Information Block
STRT.FT               -14.0000: START DEPTH
STOP.FT              9405.0000: STOP DEPTH
STEP.FT                 0.5000: STEP
NULL.                -999.2500: NULL VALUE
COMP.          Chesapeake Energy: COMPANY
WELL.          Brand 32 - 8 -2 1H: WELL
FLD.                     Utica: FIELD
LOC.           Lat: 40.487717--Long: -80.733858----: LOCATION
CNTY.                Jefferson: COUNTY
SRVC.      NINE ENERGY SERVICE: SERVICE COMPANY
DATE.          Mon Nov 21 10-28-03 2016: LOG DATE
UWI.              34-081-20629: UNIQUE WELL ID
STAT.                       OH: STATE
~Curve Information Block
DEPT.FT            0 000 00 00: Depth
GR.GAPI                       : Gamma Ray
CCL.                          : Casing Collar Locator
AMP3FT.MV                     : AMP3FT Amplitude
TT3FT.USEC                    : 3FT Travel Time
AMPS1.                        : AMPS1 Amplitude
AMPS2.                        : AMPS2 Amplitude
AMPS3.                        : AMPS3 Amplitude
AMPS4.                        : AMPS4 Amplitude
AMPS5.                        : AMPS5 Amplitude
AMPS6.                        : AMPS6 Amplitude
AMPS7.                        : AMPS7 Amplitude
AMPS8.                        : AMPS8 Amplitude
Temp.DEGF                     : Integral Temperature
LTEN.LB                       : Surface Line Tension
ADPTH.FT                      : Actual Depth
~Parameter Information Block
TDEPTH.FT               0.0000: Total Depth
~A  Depth        GR         CCL        AMP3FT      TT3FT       AMPS1       AMPS2       AMPS3       AMPS4       AMPS5       AMPS6       AMPS7       AMPS8        Temp        LTEN       ADPTH    
# ...
  4984.0000     15.1036      0.0000     51.0632    263.2352     67.1213     73.6312     77.7988     78.1175     74.3531     71.0157     66.8153     66.3051    128.9849    759.8225   4984.0000
  4984.5000     14.4242      0.0000     51.7457    263.2067     71.6673     78.3981     80.4297     76.7201     70.7305     68.3968     66.7605     68.9593    128.7543    759.8225   4984.5000
  4985.0000     14.8892      0.0000     50.2965    263.2653     71.4614     77.9163     78.6923     73.1335     66.3541     64.5553     64.0790     67.0518    128.7868    759.8225   4985.0000
  4985.5000     13.6959      0.0000     49.3666    263.2664     68.3888     74.0491     75.9456     72.4846     66.6780     64.6851     62.8863     64.7089    128.7499    772.4598   4985.5000
  4986.0000     12.4259      0.0000     49.0717    263.2374     65.2013     70.1802     73.9866     73.6715     69.2080     66.8541     63.6804     63.6356    128.6691    777.1989   4986.0000
  4986.5000     15.0198      0.0000     49.5713    263.1566     64.1836     69.3094     74.0566     75.6708     72.5053     69.6526     65.5519     63.9927    128.9209    777.1989   4986.4917
  4987.0000     14.8563      0.0000     49.6190    263.1873     63.2692     68.6163     73.5864     76.1821     74.0951     71.2404     66.4347     64.0294    128.9759    753.5039   4986.9917
  4987.5000      9.7629      0.0000     49.1913    263.2324     62.6077     68.1132     72.9358     75.2658     73.1480     70.5483     65.8770     63.5252    128.7869    764.5615   4987.4917
  4988.0000      5.7071      0.0000     49.6071    263.1990     64.9122     71.2308     75.0092     74.5747     70.5177     68.4361     65.5938     64.6712    128.8920    777.1989   4988.0000
  4988.5000      5.5971      0.0000     50.6183    263.2457     69.3505     76.3845     78.1702     74.2105     68.1721     66.8085     66.0008     67.3588    128.6263    777.1989   4988.4917
  4989.0000      9.3527      0.0000     51.6599    263.3314     73.1214     79.7014     79.9763     74.5760     67.8845     66.7148     67.0230     69.9682    129.0612    780.3582   4988.9917
  4989.5000     11.7618      0.0000     53.3834    263.4249     75.0857     81.0241     81.4601     77.2552     70.5714     69.0704     69.7362     72.4233    129.0460    778.7785   4989.4917
  4990.0000     10.2983      0.0000     55.9303    263.4934     76.3239     81.7792     83.5674     81.9827     75.6760     73.7956     73.9895     75.2828    128.9765    778.7785   4989.9834
  4990.5000     11.9784      0.0000     57.3297    263.4295     75.6206     80.5817     84.0587     85.6211     80.8653     78.6013     76.9901     76.4197    128.9309    778.7785   4990.5000
  4991.0000     15.9838      0.0000     57.1708    263.2835     73.7034     78.1135     82.7819     86.7334     84.2303     81.3417     77.4988     75.4904    129.0181    778.7785   4991.0000
  4991.5000     18.9297      0.0000     56.3520    263.2414     72.7504     77.0910     81.7087     85.7360     84.0144     80.8652     76.4263     74.4779    128.8450    778.7785   4991.4917
  4992.0000     21.4783      0.0000     55.4743    263.2099     73.9263     78.4407     81.3763     82.8431     80.0500     77.6614     74.4922     74.0713    128.8297    766.1412   4992.0000
  4992.5000     19.3739      0.0000     54.3212    263.2306     75.5831     80.1125     81.3860     79.7540     75.2395     73.0067     72.0663     73.7389    128.8280    750.3445   4992.4917
  4993.0000     13.6459      0.0000     53.2123    263.2815     74.6501     79.3455     80.6991     77.8962     72.0105     70.3935     70.3947     72.6432    128.8857    759.8225   4993.0000
  4993.5000     11.8525      0.0000     52.8238    263.3518     73.6127     78.1447     80.1668     77.9301     71.2664     69.7890     69.4504     71.6736    128.9965    772.4598   4993.4917
  4994.0000     11.3419      0.0000     53.8797    263.3694     73.6191     78.1464     81.5268     81.3465     74.8962     72.2405     71.3310     72.3665    128.8740    770.8802   4994.0000
  4994.5000      9.7151      0.0000     55.2601    263.3482     72.6475     76.9884     82.0013     84.0849     78.9965     75.6286     74.1572     73.5096    129.0380    770.8802   4994.5000
  4995.0000      9.6339      0.0000     56.4223    263.3202     72.0021     76.0534     82.3486     86.4784     82.5720     79.0466     76.7397     74.4416    128.9164    770.8802   4995.0000
  4995.5000     13.7943      0.0000     58.3590    263.2930     73.8231     78.0841     84.8906     90.1116     86.6330     82.3789     79.2598     76.2235    129.0694    767.7208   4995.5000
  4996.0000     21.9358      0.0000     59.4689    263.2007     75.4273     80.0663     86.7528     91.6627     88.0495     83.7729     80.3461     77.3671    128.9794    767.7208   4996.0000
  4996.5000     26.5250      0.0000     58.4055    263.1740     74.7776     79.4455     85.5474     89.8777     86.2243     82.3585     78.6644     76.1769    128.9271    764.5615   4996.5000
  4997.0000     26.7358      0.0000     57.5095    263.1208     76.3224     80.6999     84.9167     87.5346     83.3963     78.9734     76.1965     75.8083    128.9647    766.1412   4997.0000
  4997.5000     21.3928      0.0000     57.0686    263.0645     78.0269     82.2561     85.1477     85.7804     80.6974     76.1456     74.4223     75.8802    129.0414    764.5615   4997.4917
  4998.0000     11.5772      0.0000     56.2976    262.9237     76.3781     80.3393     84.2569     84.8647     79.4050     75.2990     73.4393     74.5516    129.0218    762.9819   4997.9834
  4998.5000      6.9986      0.0000     55.2046    262.9167     72.5039     76.8284     82.7674     84.6671     79.2145     75.1330     72.3742     72.1509    129.0442    762.9819   4998.5000
  4999.0000      9.0010      0.0000     54.2440    262.9687     68.6606     73.5731     81.1728     85.0778     80.6286     75.9542     71.4814     69.7589    129.1265    759.8225   4999.0000
  4999.5000     12.7191      0.0000     54.6649    262.9063     68.5699     73.7193     81.6173     86.2615     82.5287     77.2157     71.8020     69.6335    128.9630    772.4598   4999.5000
  5000.0000     15.3829      0.0000     56.5072    262.8749     72.3282     77.5402     83.9413     87.7227     84.0344     79.4773     74.9660     73.2580    129.0343    766.1412   5000.0000
  5000.5000     13.8835      0.0000     57.7078    262.8798     76.1066     81.0874     85.2269     87.2813     83.4417     80.7229     77.6503     76.8999    129.0809    766.1412   5000.5000
  5001.0000     11.2276      0.0000     57.5576    262.8675     78.4705     83.0438     85.1392     84.9016     80.5165     79.0478     77.0355     77.9513    129.1806    764.5615   5000.9917
  5001.5000     12.9363      0.0000     57.1486    262.9228     78.8720     83.3943     85.2720     83.8068     78.5809     77.2756     76.1481     77.8337    129.0990    785.0972   5001.4917
  5002.0000     18.1622      0.0000     54.1991    263.2204     74.5802     79.6432     82.2379     80.4203     74.6811     72.5583     71.9567     73.2909    129.0244    786.6768   5001.9917
  5002.5000     20.7156      0.0000     45.7078    264.7090     62.1151     68.3585     72.2887     70.7440     64.2195     60.3179     59.1100     59.5596    129.0569    781.9378   5002.4917
  5003.0000     15.7187      0.0000     37.7311    267.9499     50.6021     57.2188     62.1326     61.9564     55.4903     50.8451     48.6697     48.4522    129.0451    759.8225   5002.9834
  5003.5000      7.7815      0.0000     32.6003    269.0403     42.3865     47.4154     51.3233     52.1344     47.5778     44.1486     42.1150     41.5746    129.0677    767.7208   5003.4917
  5004.0000      4.3146      0.0000     32.9732    268.3840     41.7311     45.9561     49.2506     50.5602     47.1546     44.6998     42.6275     41.7279    129.1371    767.7208   5003.9834
  5004.5000      6.9409      0.0000     32.5702    268.2471     42.1933     44.7124     46.6629     48.2891     46.4316     44.8773     43.4604     42.7634    129.1214    761.4022   5004.5000
