~Version Information
VERS.                      2.0: CWLS Log ASCII Standard - VERSION 2.0
WRAP.                       NO: One line per depth step
~Well Information Block
STRT.FT               -14.0000: START DEPTH
STOP.FT              9405.0000: STOP DEPTH
STEP.FT                 0.5000: STEP
NULL.                -999.2500: NULL VALUE
COMP.          Chesapeake Energy: COMPANY
WELL.          Brand 32 - 8 -2 1H: WELL
FLD.                     Utica: FIELD
LOC.           Lat: 40.487717--Long: -80.733858----: LOCATION
CNTY.                Jefferson: COUNTY
SRVC.      NINE ENERGY SERVICE: SERVICE COMPANY
DATE.          Mon Nov 21 10-28-03 2016: LOG DATE
UWI.              34-081-20629: UNIQUE WELL ID
STAT.                       OH: STATE
~Curve Information Block
DEPT.FT            0 000 00 00: Depth
GR.GAPI                       : Gamma Ray
CCL.                          : Casing Collar Locator
AMP3FT.MV                     : AMP3FT Amplitude
TT3FT.USEC                    : 3FT Travel Time
AMPS1.                        : AMPS1 Amplitude
AMPS2.                        : AMPS2 Amplitude
AMPS3.                        : AMPS3 Amplitude
AMPS4.                        : AMPS4 Amplitude
AMPS5.                        : AMPS5 Amplitude
AMPS6.                        : AMPS6 Amplitude
AMPS7.                        : AMPS7 Amplitude
AMPS8.                        : AMPS8 Amplitude
Temp.DEGF                     : Integral Temperature
LTEN.LB                       : Surface Line Tension
ADPTH.FT                      : Actual Depth
~Parameter Information Block
TDEPTH.FT               0.0000: Total Depth
~A  Depth        GR         CCL        AMP3FT      TT3FT       AMPS1       AMPS2       AMPS3       AMPS4       AMPS5       AMPS6       AMPS7       AMPS8        Temp        LTEN       ADPTH    
# ...
  5614.0000     11.2154      0.0000     20.3305    267.6490     27.5277     26.3902     25.2081     26.3280     27.4635     28.7362     28.5186     27.9139    134.6017    871.9786   5613.9917
  5614.5000      9.0153      0.0000     20.8446    267.4671     28.1452     27.0671     25.5045     26.9097     28.2148     29.5396     29.3354     29.0279    134.2793    871.9786   5614.4834
  5615.0000      7.0067      0.0000     22.1379    267.0388     30.2503     28.4964     26.6589     28.0141     30.0832     31.9623     31.9080     31.7954    134.5269    871.9786   5615.0000
  5615.5000      3.8204      0.0000     22.1986    266.8769     31.4449     28.8498     26.6308     27.3319     29.9805     32.2071     32.5800     32.7482    134.5946    857.7617   5615.4917
  5616.0000      2.5533      0.0000     20.8223    267.1390     29.8038     27.2460     25.2888     25.7677     28.1919     30.1521     31.4168     31.5324    134.4252    865.6600   5615.9917
  5616.5000      4.4561      0.0000     19.1222    267.6734     27.1537     24.6452     23.1441     23.9674     25.8384     27.8853     30.3589     30.2741    134.5739    867.2396   5616.4917
  5617.0000      7.9652      0.0000     18.1903    268.3135     25.5759     22.5061     21.1538     22.2337     24.1527     26.9147     30.5199     30.2636    134.3138    876.7176   5617.0000
  5617.5000      9.6641      0.0000     16.9813    269.1926     23.7419     20.4914     19.3874     20.2259     21.8121     24.8847     28.3818     28.2164    134.6251    868.8193   5617.5000
  5618.0000      8.1079      0.0000     15.8258    269.7005     21.9282     19.7580     18.7161     19.0284     20.0675     22.7228     24.7839     24.3283    134.4769    857.7617   5617.9917
  5618.5000      6.1577      0.0000     15.5696    269.6283     20.9945     20.0445     19.0790     19.0958     20.1045     22.3345     23.0262     22.1374    134.4913    871.9786   5618.5000
  5619.0000      6.1596      0.0000     16.0124    269.4634     20.8257     20.3315     19.7679     20.1570     21.6804     23.5234     23.3613     22.1973    134.6674    881.4566   5619.0000
  5619.5000      6.8842      0.0000     16.0893    270.0455     20.7458     20.1771     20.0059     20.9170     22.6602     23.9128     23.4461     22.3288    134.4451    862.5006   5619.4917
  5620.0000      7.6219      0.0000     14.6929    276.7245     19.5913     18.3561     17.8099     18.8808     20.3350     21.2966     21.4430     21.1696    134.5820    857.7617   5620.0000
  5620.5000      6.6954      0.0000     13.2807    295.5410     18.1264     16.6458     15.6383     16.2593     17.4978     18.7315     19.3128     19.5248    134.5191    859.3413   5620.5000
  5621.0000      5.2084      0.0000     12.5424    307.7920     16.9304     15.9005     15.0447     15.4082     16.3070     17.5505     18.2859     18.1751    134.4892    878.2972   5621.0000
  5621.5000      5.8564      0.0000     11.8533    309.3827     15.4435     14.9922     14.2969     15.1468     15.9420     16.9537     17.1424     16.5719    134.5215    878.2972   5621.5000
  5622.0000      8.1799      0.0000     11.4331    309.3545     14.1306     13.9995     13.7214     14.7800     15.7348     16.6392     16.3167     15.3808    134.4035    859.3413   5621.9917
  5622.5000     11.4922      0.0000     10.9871    309.3982     13.3459     13.5023     13.5215     14.3450     15.1817     15.9986     15.7140     14.8555    134.2619    886.1956   5622.4834
  5623.0000     14.6161      0.0000     10.7894    309.3047     13.3504     13.1991     13.1938     13.9693     14.9182     15.7684     15.6949     14.7734    134.6503    875.1379   5623.0000
  5623.5000     15.5934      0.0000     11.2171    305.4861     14.2556     13.5948     13.3644     14.1266     15.3387     16.4630     16.8281     15.8004    134.7326    867.2396   5623.4917
  5624.0000     15.8682      0.0000     12.1182    299.4708     16.1313     14.8421     14.2464     14.9686     16.3720     17.6368     17.9742     17.4581    134.5172    875.1379   5623.9917
  5624.5000     15.1305      0.0000     12.2540    305.4630     16.6580     15.3031     14.6567     15.1313     16.3173     17.7893     17.6500     17.4029    134.6448    860.9210   5624.5000
  5625.0000     13.1861      0.0000     11.8625    309.3462     16.1417     15.0259     14.5333     14.8595     15.7756     16.8093     16.7423     16.7373    134.3597    868.8193   5625.0000
  5625.5000     10.2027      0.0000     10.9218    309.4514     14.5290     13.7659     13.3542     13.6824     14.6281     15.3454     15.4746     15.4367    134.6080    881.4566   5625.4917
  5626.0000      7.3308      0.0000     10.0116    308.0481     13.2480     12.7145     12.3645     12.3965     13.3447     14.1031     14.2503     14.1139    134.6279    875.1379   5625.9917
  5626.5000      5.8241      0.0000      9.7371    302.9068     13.1028     12.4610     12.0337     11.8317     12.5379     13.4434     13.7798     13.6828    134.7553    873.5583   5626.4917
  5627.0000      6.2286      0.0000      8.1834    306.2710     11.1186     10.2184      9.8247      9.8671     10.6697     11.9126     12.2097     11.6849    134.4516    879.8770   5626.9917
  5627.5000      6.7350      0.0000      7.2505    313.6499      9.8708      8.6395      8.3373      8.9103     10.0558     11.3363     11.4723     10.4187    134.7777    876.7176   5627.4917
  5628.0000      6.3252      0.0000      8.3938    314.0872     11.3889     10.1450      9.8149     10.4122     11.4372     12.6913     13.1496     12.1687    134.3120    876.7176   5627.9917
  5628.5000      7.6131      0.0000      9.0587    313.8954     12.4561     11.1232     10.6852     10.8619     11.8505     13.3722     14.3476     13.7166    134.7165    860.9210   5628.4917
  5629.0000     10.7883      0.0000      9.7500    314.3885     14.0425     12.3511     11.5541     11.6591     13.1318     14.9309     16.4665     15.8639    134.6972    870.3989   5629.0000
  5629.5000     12.3014      0.0000     11.2204    313.1252     16.0103     14.3798     13.1711     13.4523     15.3040     17.3295     19.0725     18.4215    134.5064    870.3989   5629.5000
  5630.0000     10.4984      0.0000     11.6084    310.3438     15.5954     14.7829     13.4285     13.6000     15.0440     17.1242     18.7981     18.4620    134.4666    870.3989   5630.0000
  5630.5000      8.9475      0.0000     11.9412    309.6676     15.6874     15.3714     14.1901     13.9892     15.0743     17.1794     18.5699     18.2587    134.5422    870.3989   5630.4917
  5631.0000      6.8723      0.0000     12.3827    309.4196     16.8311     15.9813     14.8098     14.5121     15.4695     17.8235     19.0802     18.7545    134.6459    871.9786   5631.0000
  5631.5000      2.8219      0.0000     12.8121    304.3721     17.8975     16.4788     15.1835     14.8878     15.8034     18.0310     19.7569     19.7902    134.6486    871.9786   5631.4917
  5632.0000      1.3730      0.0000     13.3085    290.5392     18.8801     17.1177     15.5338     15.4672     16.3880     18.6315     20.8703     21.0618    134.6873    851.4430   5631.9917
  5632.5000      2.8702      0.0000     13.4214    286.0426     19.0079     17.2543     15.5410     15.4276     16.5901     19.0960     21.5699     21.4843    134.7919    881.4566   5632.5000
  5633.0000      4.1628      0.0000     13.3728    288.9944     18.5804     16.8478     15.4234     15.3226     16.5055     18.9344     21.3536     21.1109    134.5802    889.3549   5632.9917
  5633.5000      3.7940      0.0000     13.3600    290.9798     18.3004     17.0263     15.9081     15.6821     16.5536     18.6344     20.5270     20.2214    134.6469    864.0803   5633.4834
  5634.0000      2.7315      0.0000     14.0122    277.5318     18.9701     18.0636     17.2038     17.0856     18.0738     19.7042     20.9314     20.4305    134.5900    862.5006   5634.0000
  5634.5000      4.3791      0.0000     15.2287    271.0672     19.8877     19.1821     19.1158     19.6412     20.5034     21.9035     22.6045     21.7164    134.6762    862.5006   5634.4917
