~Version Information
VERS.                      2.0: CWLS Log ASCII Standard - VERSION 2.0
WRAP.                       NO: One line per depth step
~Well Information Block
STRT.FT               -14.0000: START DEPTH
STOP.FT              9405.0000: STOP DEPTH
STEP.FT                 0.5000: STEP
NULL.                -999.2500: NULL VALUE
COMP.          Chesapeake Energy: COMPANY
WELL.          Brand 32 - 8 -2 1H: WELL
FLD.                     Utica: FIELD
LOC.           Lat: 40.487717--Long: -80.733858----: LOCATION
CNTY.                Jefferson: COUNTY
SRVC.      NINE ENERGY SERVICE: SERVICE COMPANY
DATE.          Mon Nov 21 10-28-03 2016: LOG DATE
UWI.              34-081-20629: UNIQUE WELL ID
STAT.                       OH: STATE
~Curve Information Block
DEPT.FT            0 000 00 00: Depth
GR.GAPI                       : Gamma Ray
CCL.                          : Casing Collar Locator
AMP3FT.MV                     : AMP3FT Amplitude
TT3FT.USEC                    : 3FT Travel Time
AMPS1.                        : AMPS1 Amplitude
AMPS2.                        : AMPS2 Amplitude
AMPS3.                        : AMPS3 Amplitude
AMPS4.                        : AMPS4 Amplitude
AMPS5.                        : AMPS5 Amplitude
AMPS6.                        : AMPS6 Amplitude
AMPS7.                        : AMPS7 Amplitude
AMPS8.                        : AMPS8 Amplitude
Temp.DEGF                     : Integral Temperature
LTEN.LB                       : Surface Line Tension
ADPTH.FT                      : Actual Depth
~Parameter Information Block
TDEPTH.FT               0.0000: Total Depth
~A  Depth        GR         CCL        AMP3FT      TT3FT       AMPS1       AMPS2       AMPS3       AMPS4       AMPS5       AMPS6       AMPS7       AMPS8        Temp        LTEN       ADPTH    
# ...
  3745.0000     69.0730      0.0000     32.9367    268.4593     44.6115     39.9284     40.9239     44.0597     46.8568     56.7453     66.8995     59.8439    103.7836    616.0732   3744.9917
  3745.5000     59.7868      0.0000     26.5962    270.6048     36.7201     32.5166     33.0844     35.2248     37.5595     46.8233     55.7306     49.7546    103.9576    616.0732   3745.4917
  3746.0000     67.1495      1.0000     25.5753    269.7984     35.5386     31.2866     31.0614     32.7708     34.7237     42.5858     50.0400     46.1097    104.0444    608.1749   3745.9917
  3746.5000     85.9377      0.0000     27.6234    269.1444     39.3801     34.3118     33.3059     34.7512     36.4755     43.4238     50.6668     48.6833    103.9811    601.8562   3746.5000
  3747.0000     92.7448      0.0000     27.8081    269.5115     40.5701     35.4742     33.9553     35.1120     36.4682     41.9539     48.3926     48.0952    103.9156    619.2325   3746.9917
  3747.5000     84.2673      0.0000     27.0460    270.3783     40.3575     35.5535     33.9738     35.3333     36.2361     39.9730     45.1771     46.1921    104.1201    619.2325   3747.5000
  3748.0000     77.4840      0.0000     31.5981    268.6022     47.6513     41.3360     39.1876     41.4308     43.4427     47.5071     53.1238     54.8521    103.8732    620.8122   3747.9917
  3748.5000     65.7601      0.0000     35.5797    265.3183     52.7593     45.2455     43.0933     46.6717     49.4476     53.3772     58.7472     61.1577    103.9811    620.8122   3748.4917
  3749.0000     56.8357      0.0000     38.9657    264.0745     57.2728     49.1340     47.4758     52.3999     54.7940     57.8821     63.0662     66.2568    104.1729    620.8122   3749.0000
  3749.5000     61.1003      0.0000     39.6324    263.9347     59.9734     50.6501     48.0783     52.2605     54.3453     58.2834     64.6275     69.1392    103.8511    622.3918   3749.4917
  3750.0000     71.0121      0.0000     38.9892    263.9826     60.8301     50.1803     46.0300     48.9000     51.2276     56.9458     65.2641     70.7965    104.0829    622.3918   3749.9917
  3750.5000     81.4675      0.0000     39.2157    263.7728     61.9167     50.8167     45.9940     47.7263     50.0644     56.3442     66.1005     72.1316    103.9865    620.8122   3750.5000
  3751.0000     89.8680      0.0000     39.6922    263.7553     62.0905     51.4323     47.1438     48.6397     50.5525     56.9096     67.0040     72.2021    103.8321    614.4935   3751.0000
  3751.5000     95.3531      0.0000     41.1004    263.8526     62.0126     52.7105     49.6388     52.0273     54.0238     60.2030     69.1943     72.2176    104.0371    623.9715   3751.5000
  3752.0000     91.5808      0.0000     42.7060    263.8700     62.3896     54.5874     52.9113     56.0996     58.5140     63.2588     70.4999     72.3639    104.1406    625.5511   3752.0000
  3752.5000     85.8420      0.0000     41.7069    263.8670     60.3854     53.5804     53.3371     56.7872     58.1854     61.0146     67.3141     69.5442    104.0082    625.5511   3752.4917
  3753.0000     84.4711      0.0000     38.7755    263.7578     56.2775     50.3261     51.1393     54.5426     54.3635     55.9321     62.3441     64.9498    104.0597    625.5511   3752.9917
  3753.5000     92.9545      0.0000     36.2586    263.7179     53.7832     47.1096     47.1723     50.2116     50.4915     52.7407     60.5082     63.3254    104.0306    623.9715   3753.5000
  3754.0000     96.8992      0.0000     33.7038    263.9390     51.4319     43.3120     41.3389     43.5464     45.3709     50.0055     59.6612     62.5541    104.1377    623.9715   3753.9917
  3754.5000     83.3410      0.0000     32.5780    264.0622     49.7369     40.7668     37.7337     39.5557     42.5330     49.2274     59.8338     62.0175    103.8930    623.9715   3754.5000
  3755.0000     75.2306      0.0000     33.4735    264.0235     49.9769     41.1385     38.0597     40.1160     43.4109     50.9450     61.5129     63.0043    104.1712    620.8122   3755.0000
  3755.5000     77.2815      0.0000     36.0784    263.9512     51.9670     44.3759     41.7671     44.3720     47.5427     55.0631     64.3729     65.1047    104.0784    619.2325   3755.5000
  3756.0000     87.5557      0.0000     39.8570    263.7847     56.3244     49.4061     47.9671     51.3301     54.2294     60.7047     68.1272     68.4005    104.0975    620.8122   3756.0000
  3756.5000     94.7968      0.0000     42.0310    263.6659     59.2404     52.3685     52.1579     56.2333     58.6992     63.6348     69.8934     69.9151    104.1559    598.6969   3756.5000
  3757.0000     82.5872      0.0000     40.4023    263.7061     57.6915     51.5634     51.4311     54.9746     55.8802     59.5688     66.2383     67.1415    104.0659    598.6969   3757.0000
  3757.5000     72.4050      0.0000     37.8781    263.7164     55.3861     49.8596     48.8447     50.8411     50.7973     54.4939     62.6559     64.5662    104.1406    625.5511   3757.5000
  3758.0000     69.4109      0.0000     35.8363    263.7479     53.5007     47.4130     45.2948     46.6760     47.3912     51.7963     61.3895     63.6439    104.0856    630.2902   3758.0000
  3758.5000     69.9584      0.0000     35.1344    263.7871     52.8154     45.8206     43.0521     44.5745     46.2363     51.6335     61.9706     63.7853    104.1253    605.0156   3758.5000
  3759.0000     75.7383      0.0000     36.5455    263.6361     53.2075     46.3780     44.6633     46.9837     48.9842     54.7297     64.2027     64.7612    104.1532    608.1749   3759.0000
  3759.5000     79.9488      0.0000     38.2050    263.5038     53.8251     47.6417     47.3716     50.6864     52.4802     57.7218     65.4733     65.4052    104.2241    622.3918   3759.5000
  3760.0000     83.1865      0.0000     39.3525    263.5406     55.1008     49.3979     49.4800     53.1912     54.4879     58.9432     65.6270     66.1599    104.2269    617.6528   3759.9917
  3760.5000     80.3197      0.0000     39.8418    263.4663     56.4055     51.4335     50.9979     54.2820     55.0247     58.5386     65.0335     66.4388    104.4029    617.6528   3760.4917
  3761.0000     69.3624      0.0000     39.4642    263.2844     56.7219     52.3813     51.2452     53.6361     54.1235     57.2102     63.7667     65.5675    104.1712    614.4935   3760.9917
  3761.5000     55.7365      0.0000     37.9491    263.3194     55.1198     50.4890     48.8182     50.6737     51.3404     55.0193     62.2798     63.9015    104.2135    617.6528   3761.4917
  3762.0000     50.7279      0.0000     36.3673    263.4955     52.9007     47.4369     45.3964     47.0830     48.5443     53.4752     61.6499     62.3242    104.1794    617.6528   3762.0000
  3762.5000     62.8284      0.0000     36.1342    263.5716     52.2305     46.0286     43.9670     45.6343     47.9268     53.8592     62.6819     62.6426    104.2503    616.0732   3762.5000
  3763.0000     77.7907      0.0000     37.2393    263.6490     53.1808     46.5295     44.7904     47.3792     50.0327     56.1882     64.6641     64.4860    104.2487    617.6528   3762.9917
  3763.5000     82.4854      0.0000     40.0097    263.6485     55.5154     49.4090     48.5428     52.7905     55.5739     60.7858     67.9301     67.5536    104.3362    617.6528   3763.4917
  3764.0000     79.0360      0.0000     42.2960    263.4847     58.2989     52.4274     52.1098     57.1324     59.4712     63.8316     69.9880     69.7267    104.2072    617.6528   3764.0000
  3764.5000     72.4581      0.0000     42.5472    263.4988     60.1313     53.9442     53.0562     56.7807     58.6343     63.3119     69.6906     70.1104    104.2502    619.2325   3764.4917
  3765.0000     78.0717      0.0000     40.9004    263.6879     60.0611     53.5455     51.1205     52.6521     53.9889     59.8091     67.9011     69.1824    104.3497    617.6528   3765.0000
  3765.5000     85.1173      0.0000     39.3664    263.7653     59.1138     52.2965     48.6163     48.8940     50.2981     57.4176     66.6809     68.0347    104.2099    619.2325   3765.5000
