~Version Information
VERS.                      2.0: CWLS Log ASCII Standard - VERSION 2.0
WRAP.                       NO: One line per depth step
~Well Information Block
STRT.FT               -14.0000: START DEPTH
STOP.FT              9405.0000: STOP DEPTH
STEP.FT                 0.5000: STEP
NULL.                -999.2500: NULL VALUE
COMP.          Chesapeake Energy: COMPANY
WELL.          Brand 32 - 8 -2 1H: WELL
FLD.                     Utica: FIELD
LOC.           Lat: 40.487717--Long: -80.733858----: LOCATION
CNTY.                Jefferson: COUNTY
SRVC.      NINE ENERGY SERVICE: SERVICE COMPANY
DATE.          Mon Nov 21 10-28-03 2016: LOG DATE
UWI.              34-081-20629: UNIQUE WELL ID
STAT.                       OH: STATE
~Curve Information Block
DEPT.FT            0 000 00 00: Depth
GR.GAPI                       : Gamma Ray
CCL.                          : Casing Collar Locator
AMP3FT.MV                     : AMP3FT Amplitude
TT3FT.USEC                    : 3FT Travel Time
AMPS1.                        : AMPS1 Amplitude
AMPS2.                        : AMPS2 Amplitude
AMPS3.                        : AMPS3 Amplitude
AMPS4.                        : AMPS4 Amplitude
AMPS5.                        : AMPS5 Amplitude
AMPS6.                        : AMPS6 Amplitude
AMPS7.                        : AMPS7 Amplitude
AMPS8.                        : AMPS8 Amplitude
Temp.DEGF                     : Integral Temperature
LTEN.LB                       : Surface Line Tension
ADPTH.FT                      : Actual Depth
~Parameter Information Block
TDEPTH.FT               0.0000: Total Depth
~A  Depth        GR         CCL        AMP3FT      TT3FT       AMPS1       AMPS2       AMPS3       AMPS4       AMPS5       AMPS6       AMPS7       AMPS8        Temp        LTEN       ADPTH    
# ...
   616.0000     13.3721      0.0000     21.7667    272.7736     29.2166     27.8306     27.9604     30.3379     32.1014     33.6879     33.4612     31.6277     57.7082    303.2999    615.9916
   616.5000     12.1474      0.0000     23.5833    272.1933     31.4121     30.1581     30.5742     33.0179     34.5351     36.1258     36.0020     33.9276     57.4315    303.2999    616.5000
   617.0000     15.0019      0.0000     26.4412    271.2880     34.7364     33.6478     34.2583     36.8369     38.3968     40.2767     40.3277     37.7834     57.7153    279.6049    617.0000
   617.5000     16.5622      0.0000     26.8242    271.2407     34.6861     34.2091     35.1490     38.2728     40.1858     41.8649     41.0780     37.9312     57.6653    263.8083    617.5000
   618.0000     13.5535      0.0000     26.5805    271.6824     35.6146     35.0697     36.3712     40.0520     42.3564     43.5053     42.3118     38.8910     57.5812    282.7643    617.9916
   618.5000     14.2030      0.0000     30.0102    270.1705     40.2188     38.9387     40.1083     44.3437     46.6104     47.9859     46.8331     44.0738     57.5054    262.2287    618.4916
   619.0000     21.5651      0.0000     34.1056    267.3112     44.4676     42.3933     42.8121     46.5222     48.2391     49.8142     49.8946     48.2957     57.4558    271.7066    618.9916
   619.5000     28.9280      0.0000     37.9987    265.9037     50.6207     47.4711     47.0555     49.9564     51.4663     53.7682     55.9804     54.7005     57.6437    287.5033    619.4916
   620.0000     27.4931      0.0000     39.3153    265.5800     53.0821     49.7419     48.8998     51.6224     53.1384     56.3358     59.3846     58.2399     57.5545    292.2422    620.0000
   620.5000     21.2243      0.0000     39.9369    265.5301     53.6293     50.1382     49.2631     52.2266     53.7693     57.9282     61.3776     59.9195     57.7553    284.3439    620.5000
   621.0000     20.5554      0.0000     41.4647    265.4887     55.4055     51.0371     50.1599     53.3964     55.2968     60.8670     64.9420     63.0118     57.7292    300.1406    621.0000
   621.5000     23.1422      0.0000     43.8610    265.4351     57.7151     53.0345     52.5732     56.2482     58.6045     65.1684     68.9445     66.3966     57.7319    287.5033    621.5000
   622.0000     23.9696      0.0000     46.6669    265.3492     60.9165     56.0401     55.7853     59.8219     62.4956     69.5480     72.9841     70.0769     57.7315    285.9236    621.9916
   622.5000     22.6563      0.0000     48.6352    265.3264     63.8734     59.0508     58.7511     62.8975     65.7562     72.6857     75.3428     72.4250     57.5376    285.9236    622.5000
   623.0000     19.8227      0.0000     50.0426    265.2980     65.7599     61.3590     61.1388     65.4861     68.5495     75.0816     76.7280     73.4967     57.6982    284.3439    623.0000
   623.5000     15.6747      0.0000     50.9959    265.3000     66.6105     62.8215     62.9094     67.2850     70.8270     76.8248     77.5415     73.9042     57.6533    260.6490    623.5000
   624.0000     14.4230      0.0000     51.5485    265.2541     66.8380     63.6036     64.0390     68.5231     72.3758     77.8109     77.8606     73.7546     57.6977    259.0693    624.0000
   624.5000     14.8957      0.0000     52.0284    265.2111     67.3555     64.3076     64.9749     69.8329     73.3010     78.5965     78.5845     74.1763     57.7481    259.0693    624.5000
   625.0000     13.2686      0.0000     52.0409    265.2061     67.4991     64.7873     65.7355     70.5921     73.2175     78.2098     78.0287     73.8233     57.9707    255.9100    624.9916
   625.5000     11.2149      0.0000     51.6322    265.1566     67.2179     64.6828     65.4646     69.9578     71.8940     76.7400     76.5415     73.0615     57.7757    254.3303    625.4916
   626.0000     12.5541      0.0000     51.4376    265.1343     67.3345     64.1854     64.9044     69.0957     70.7849     76.1719     76.8299     73.7515     57.6829    260.6490    626.0000
   626.5000     16.1507      0.0000     50.9428    265.1869     67.2927     63.7800     64.2271     68.0120     69.7869     76.0294     78.0173     74.7533     57.6813    278.0253    626.4916
   627.0000     20.0300      0.0000     50.0150    265.2278     66.6324     63.0389     62.9089     66.2766     68.3472     75.5370     78.5241     74.7991     57.7120    279.6049    627.0000
   627.5000     23.1571      0.0000     49.6269    265.2297     65.6052     61.9761     61.7231     65.1891     67.6487     75.2861     78.6130     74.1845     57.6968    279.6049    627.5000
   628.0000     25.3203      0.0000     49.2442    265.2244     64.1492     60.4343     60.4550     64.6016     67.7356     75.2502     78.3310     73.2197     57.6805    281.1846    628.0000
   628.5000     28.6369      0.0000     49.0402    265.2248     63.7475     59.5297     59.3532     63.7698     67.5255     75.1424     78.4844     73.2330     57.7157    281.1846    628.4916
   629.0000     31.2072      0.0000     49.6641    265.2415     64.9547     60.3479     59.7540     64.0372     68.1753     76.0481     79.3583     74.2176     57.9446    279.6049    629.0000
   629.5000     28.1139      0.0000     50.3973    265.2691     66.2222     61.3569     60.6664     64.8808     69.2215     77.0733     80.0445     75.3761     57.5370    281.1846    629.4916
   630.0000     20.7852      0.0000     51.0042    265.2975     67.1882     62.2663     61.7267     66.1862     70.1604     77.6366     80.2408     76.1436     57.8521    279.6049    629.9916
   630.5000     13.8245      0.0000     52.0289    265.3152     68.7243     64.1608     63.5273     67.9930     71.4562     78.4190     81.2279     77.4475     57.5893    255.9100    630.5000
   631.0000     11.3812      0.0000     52.9808    265.3375     70.3066     65.8375     64.8221     68.9771     72.5370     79.4132     82.9363     79.0726     57.6805    252.7507    630.9916
   631.5000     10.3611      0.0000     53.6017    265.3571     71.1735     66.4812     65.7533     69.5922     73.2639     80.2017     84.1449     80.2588     57.8202    252.7507    631.4916
   632.0000     11.9279      0.0000     54.1920    265.3191     71.6671     67.1092     66.9677     70.7965     74.0136     80.9289     84.9293     81.0533     58.0328    251.1710    632.0000
   632.5000     16.2517      0.0000     54.8518    265.2866     72.6167     68.1536     68.0982     72.0104     75.0359     82.0243     86.1969     82.0349     57.8390    249.5914    632.5000
   633.0000     17.2513      0.0000     55.2481    265.2739     73.2389     68.8573     68.8695     72.5577     75.7048     83.2086     87.5217     82.6865     57.9724    249.5914    633.0000
   633.5000     19.8902      0.0000     55.2082    265.2532     72.8950     68.6131     68.5775     72.5130     76.1379     84.0625     88.4495     82.7555     57.6156    249.5914    633.5000
   634.0000     26.7863      0.0000     55.2738    265.2934     72.5456     68.3976     68.2152     72.5193     76.8020     84.3211     88.6981     82.6909     57.6434    248.0117    634.0000
   634.5000     29.5719      0.0000     55.6347    265.3091     72.6007     68.4891     68.0996     72.6903     77.2092     84.6227     88.8754     82.8295     58.0427    281.1846    634.4916
   635.0000     23.8729      0.0000     55.6887    265.3358     72.2219     68.4466     67.9033     72.6982     77.6425     84.9352     88.5241     82.3273     57.8919    281.1846    635.0000
   635.5000     20.4286      0.0000     55.9437    265.3953     72.4662     68.8461     68.1154     72.9792     78.2348     85.0445     88.0384     82.0574     57.7964    281.1846    635.4916
   636.0000     24.9922      0.0000     56.1562    265.4326     73.3036     69.4016     68.2829     73.2732     78.2586     84.8528     87.8042     82.3214     57.7540    281.1846    635.9916
   636.5000     31.8694      0.0000     56.2479    265.4295     74.1213     70.0659     68.5147     73.3556     77.9929     84.5486     87.6966     82.7991     57.8263    284.3439    636.4916
