~Version Information
VERS.                      2.0: CWLS Log ASCII Standard - VERSION 2.0
WRAP.                       NO: One line per depth step
~Well Information Block
STRT.FT              8295.5000: START DEPTH
STOP.FT                 1.0000: STOP DEPTH
STEP.FT                -0.5000: STEP
NULL.                -999.2500: NULL VALUE
COMP.          Apex Energy LLC: COMPANY
WELL.            Fatur Pad 10H: WELL
FLD.                 Marcellus: FIELD
LOC.           Lat 40.426716--Long -79.54976: LOCATION
CNTY.              Westmorland: COUNTY
SRVC.          NINE ENERGY SERVICE: SERVICE COMPANY
DATE.          Wed Jun 06 13-47-35 2018: LOG DATE
UWI.           37-129-28930-00-01: UNIQUE WELL ID
STAT.                       Pa: STATE
~Curve Information Block
DEPT.FT            0 000 00 00: Depth
GR.GAPI                      0: Gamma Ray
TT3FT.USEC                   0: 3FT Travel Time
Temp.DEGF                    0: Integral Temperature
AMP3FT.MV                    0: AMP3FT Amplitude
AMP5FT.MV                    0: AMP5FT Amplitude
AMPS1.                       0: AMPS1 Amplitude
AMPS2.                       0: AMPS2 Amplitude
AMPS3.                       0: AMPS3 Amplitude
AMPS4.                       0: AMPS4 Amplitude
AMPS5.                       0: AMPS5 Amplitude
AMPS6.                       0: AMPS6 Amplitude
AMPS7.                       0: AMPS7 Amplitude
AMPS8.                       0: AMPS8 Amplitude
CCL.                         0: Casing Collar Locator
LSPD.FT/MIN                  0: Line Speed
~Parameter Information Block
~A  Depth        GR        TT3FT        Temp       AMP3FT      AMP5FT      AMPS1       AMPS2       AMPS3       AMPS4       AMPS5       AMPS6       AMPS7       AMPS8        CCL         LSPD    
# ...
  6636.5000     84.7007    452.4436    140.5976      3.1091      1.4257      2.6015      3.0532      1.1405      1.4188      0.8667      1.2734      1.5568      3.6320      0.0000    -72.7500
  6636.0000     79.9086    480.8519    140.5950      2.7864      1.3305      2.0956      2.6481      1.1510      0.8393      0.1524      0.3475      1.3256      3.2142      0.0000    -72.7500
  6635.5000     78.2292    480.6357    140.6402      2.5683      1.5112      1.4543      1.9869      0.7589      0.4731      0.1143      0.0859      0.6314      2.3289      0.0000    -73.2500
  6635.0000     81.2859    444.0566    140.6185      2.4869      1.6322      1.3512      1.3500      0.5312      0.9218      0.6745      0.6361      0.0240      1.6643      0.0000    -73.2500
  6634.5000     81.9344    406.6379    140.3887      2.3862      1.3581      1.2751      1.2830      0.8056      1.4422      1.2463      1.0211     -0.0313      1.7841      0.0000    -73.2500
  6634.0000     82.7290    381.6871    140.3975      2.4527      1.2778      1.4600      1.5982      0.9872      1.6424      1.3515      1.3898      0.3859      2.1342      0.0000    -73.1200
  6633.5000     86.5035    382.1529    140.4775      2.9163      1.7602      2.4732      2.1823      1.0646      1.9199      1.5191      2.0924      1.2813      2.7717      0.0000    -73.1200
  6633.0000     84.9767    408.5097    140.5507      3.1936      1.8404      2.8814      2.5973      1.5307      2.4045      1.6483      3.0065      1.6573      3.2091      0.0000    -72.8700
  6632.5000     78.8685    438.9189    140.7599      3.3164      1.2171      2.6297      2.7118      1.9741      2.5692      1.7234      2.9829      1.4454      3.0357      0.0000    -72.8700
  6632.0000     68.7331    437.5562    140.4189      2.9718      1.0173      2.2012      2.3299      1.6556      2.1104      1.7594      2.0189      0.9522      2.2422      0.0000    -72.8700
  6631.5000     66.6406    425.6590    140.5217      2.8029      1.2482      2.4282      2.4341      1.6056      2.0416      1.7995      1.6361      0.7246      2.3723      0.0000    -73.1200
  6631.0000     69.7081    413.5703    140.5687      3.1981      1.4850      2.6909      2.6580      1.8099      2.4070      2.0080      2.0820      0.9502      2.8245      0.0000    -73.1200
  6630.5000     67.1696    426.3814    140.5940      3.1898      1.5408      2.5794      2.1907      1.3313      1.9413      1.3517      1.8038      0.6330      2.7595      0.0000    -72.8700
  6630.0000     67.2210    426.1885    140.4145      3.0694      1.4256      2.8730      2.2710      1.5532      2.1558      1.5587      1.8697      1.0855      3.2973      0.0000    -72.8700
  6629.5000     68.1897    420.0891    140.5903      2.9947      1.6172      3.2167      2.8548      2.2082      2.7688      2.7931      2.5076      1.7630      3.6013      0.0000    -73.1200
  6629.0000     64.1339    423.9180    140.3898      3.0355      1.4987      2.8170      2.8948      1.9996      2.9518      2.8635      2.1722      1.5020      3.1011      0.0000    -73.1200
  6628.5000     62.1959    424.2377    140.4551      3.0885      1.3234      2.6990      2.9329      1.7564      2.7089      2.4006      1.7190      1.4562      2.8674      3.0000    -73.1200
  6628.0000     69.3180    414.7618    140.5133      2.8208      1.2538      2.8386      2.7480      2.1236      2.5533      2.1511      1.5763      1.0821      2.8850      0.0000    -73.0000
  6627.5000     78.6564    389.1931    140.5079      2.5787      1.4019      2.7563      2.2245      1.9852      2.1947      1.8941      1.3466      0.5292      2.7287      0.0000    -73.0000
  6627.0000     75.2599    387.6676    140.4079      2.3333      1.4646      2.4233      1.8983      0.8520      1.4741      0.8870      0.7282      0.1317      2.4848      0.0000    -72.7500
  6626.5000     65.9470    429.6136    140.4811      2.4029      1.1032      2.1312      1.7501      0.4640      1.5659      0.5884      1.1115      0.1643      2.3788      0.0000    -72.7500
  6626.0000     65.6576    429.1602    140.1206      2.3957      1.2827      2.1051      1.7714      0.7197      1.6690      0.5647      1.0646      0.0944      2.3274      0.0000    -72.7500
  6625.5000     69.0282    404.4808    140.3562      2.7683      1.3325      2.1935      2.1069      1.4552      2.0654      1.1130      1.4087      0.4658      2.6068      0.0000    -72.7500
  6625.0000     69.5802    407.1266    140.3409      2.9671      1.4981      2.1407      2.3292      1.6399      2.0098      1.2682      1.7665      0.8587      2.8577      0.0000    -72.7500
  6624.5000     73.5534    411.6783    140.5343      2.9055      1.8132      2.0658      2.6291      1.6108      1.4643      0.9667      1.5148      0.9720      2.9504      0.0000    -73.0000
  6624.0000     82.2310    437.7895    140.3055      2.7698      1.6508      1.7887      2.4772      1.3869      1.4233      1.2264      1.3822      0.7645      2.3978      0.0000    -73.0000
  6623.5000     82.9212    448.1551    140.5447      2.7358      1.6393      2.3595      2.5458      1.6942      2.0763      1.9915      1.9513      0.9657      2.4507      0.0000    -73.0000
  6623.0000     74.8224    433.9711    140.1902      3.0162      1.4737      2.7876      3.0436      2.1890      2.7194      2.2768      2.5513      1.4400      3.0001      0.0000    -73.1200
  6622.5000     66.9536    415.9493    140.3352      3.1813      1.5159      2.9012      3.0781      2.1976      2.9354      2.0382      2.3697      1.5387      3.3580      0.0000    -73.1200
  6622.0000     65.1357    476.8479    140.4333      2.9898      2.0837      2.9489      2.5880      1.8230      2.4885      1.5503      1.4218      0.9313      3.2210      0.0000    -73.0000
  6621.5000     73.5201    502.4886    140.4751      2.8676      2.1968      3.0488      2.4901      1.7437      2.6481      1.4876      1.1850      0.8456      3.2493      0.0000    -73.0000
  6621.0000     81.5086    458.4946    140.4336      2.5711      1.4035      2.5133      2.0952      1.5914      2.1735      1.1292      0.9761      0.5142      2.5993      0.0000    -73.0000
  6620.5000     84.1070    441.7024    140.4179      2.5024      1.1317      2.1617      2.0727      1.5170      2.0852      1.0587      0.9690      0.1016      2.2170      0.0000    -73.0000
  6620.0000     83.9432    440.0985    140.2773      2.4861      0.9362      2.0453      2.2001      1.5450      2.3175      1.4040      1.3709      0.1501      2.1271      0.0000    -73.0000
  6619.5000     84.5648    446.0396    140.4289      2.5198      1.0069      2.2577      2.4535      1.6887      2.5385      1.9407      1.9866      0.7387      2.4321      0.0000    -73.0000
  6619.0000     84.6132    471.9224    140.3011      2.4921      1.2215      2.4669      2.6505      1.7608      2.6263      1.9141      2.1165      0.8843      2.6124      0.0000    -73.0000
  6618.5000     76.5400    500.7441    140.6211      2.6497      1.1290      2.4824      2.6107      1.8124      2.6606      1.7407      1.7494      0.6593      2.5015      0.0000    -73.1200
  6618.0000     71.0995    465.6214    140.3645      2.8303      1.1166      2.4233      2.3496      1.4828      2.1649      1.3780      1.2897      0.5757      2.5339      1.5771    -73.1200
  6617.5000     69.8499    459.5310    140.3175      2.9782      1.5618      2.6079      2.4376      1.1409      1.5770      1.3056      1.3059      0.7277      2.7435      0.0000    -73.1200
  6617.0000     70.7529    454.0982    140.2434      3.2123      1.6808      2.6834      2.6359      1.4652      2.1708      1.9463      1.5399      0.9272      2.8806      0.0000    -73.1200
  6616.5000     81.4777    437.0852    140.1716      3.3104      1.2894      2.1197      2.2478      1.4496      2.5500      2.4698      1.9155      1.2395      2.5434      0.0000    -73.1200
  6616.0000     97.9532    447.2376    140.2703      3.1543      1.2878      1.5873      1.6423      0.4220      1.1960      2.2269      1.5527      1.1792      2.5611      0.0000    -73.1200
