~Version Information
VERS.                      2.0: CWLS Log ASCII Standard - VERSION 2.0
WRAP.                       NO: One line per depth step
~Well Information Block
STRT.FT              8295.5000: START DEPTH
STOP.FT                 1.0000: STOP DEPTH
STEP.FT                -0.5000: STEP
NULL.                -999.2500: NULL VALUE
COMP.          Apex Energy LLC: COMPANY
WELL.            Fatur Pad 10H: WELL
FLD.                 Marcellus: FIELD
LOC.           Lat 40.426716--Long -79.54976: LOCATION
CNTY.              Westmorland: COUNTY
SRVC.          NINE ENERGY SERVICE: SERVICE COMPANY
DATE.          Wed Jun 06 13-47-35 2018: LOG DATE
UWI.           37-129-28930-00-01: UNIQUE WELL ID
STAT.                       Pa: STATE
~Curve Information Block
DEPT.FT            0 000 00 00: Depth
GR.GAPI                      0: Gamma Ray
TT3FT.USEC                   0: 3FT Travel Time
Temp.DEGF                    0: Integral Temperature
AMP3FT.MV                    0: AMP3FT Amplitude
AMP5FT.MV                    0: AMP5FT Amplitude
AMPS1.                       0: AMPS1 Amplitude
AMPS2.                       0: AMPS2 Amplitude
AMPS3.                       0: AMPS3 Amplitude
AMPS4.                       0: AMPS4 Amplitude
AMPS5.                       0: AMPS5 Amplitude
AMPS6.                       0: AMPS6 Amplitude
AMPS7.                       0: AMPS7 Amplitude
AMPS8.                       0: AMPS8 Amplitude
CCL.                         0: Casing Collar Locator
LSPD.FT/MIN                  0: Line Speed
~Parameter Information Block
~A  Depth        GR        TT3FT        Temp       AMP3FT      AMP5FT      AMPS1       AMPS2       AMPS3       AMPS4       AMPS5       AMPS6       AMPS7       AMPS8        CCL         LSPD    
# ...
  1134.5000     29.6099    262.8144     64.8515     70.0461     85.3509    112.2999    114.0087    117.5358    117.0283    116.2617    119.1506    119.7893    115.6175      0.0000   -103.2500
  1134.0000     27.5395    262.8977     64.9266     70.7922     81.7662    113.7319    115.1060    118.1793    117.8385    117.1969    120.9542    121.7820    117.5427      0.0000   -103.2500
  1133.5000     26.0363    262.9153     64.8680     70.3657     72.7526    113.5183    114.6768    116.5489    116.8535    116.2867    120.3751    121.4396    118.0391      0.0000   -103.2500
  1133.0000     24.5029    262.9578     65.0700     67.3218     62.1637    108.4614    110.2118    111.7191    112.7125    111.5598    114.6169    115.2902    112.6520      0.0000   -103.2500
  1132.5000     23.4238    263.6348     65.0402     58.9636     55.4296     95.1374     97.3444     98.7950     98.3966     97.2646     99.8509    100.2482     97.7239      0.0000   -103.2500
  1132.0000     23.9324    266.6279     65.1473     49.0500     57.4580     78.4720     80.1615     81.7817     81.1592     80.2568     82.8361     83.5020     81.2256      0.0000   -103.2500
  1131.5000     25.0515    268.1791     64.9285     43.1778     57.8052     68.6104     69.6683     71.6808     71.9089     70.9490     73.2755     73.6574     71.6421      0.0000   -102.8700
  1131.0000     24.9935    267.3016     65.2269     45.1377     58.0630     73.7019     74.1319     75.5424     74.9785     73.6522     76.0162     76.8940     75.8212      0.0000   -102.8700
  1130.5000     24.4644    267.1345     64.8924     45.4642     57.2718     75.6834     76.1211     76.4556     75.4748     73.5233     75.4315     76.8195     76.6370      0.0000   -102.8700
  1130.0000     22.4497    267.6722     65.1074     43.4176     54.6970     70.5188     71.9306     72.2571     73.3980     70.8471     71.7581     72.3030     71.8305      0.0000   -102.8700
  1129.5000     21.2049    267.9207     64.7609     42.0851     52.1024     65.4204     69.0538     70.5732     71.8429     70.5842     71.5572     70.1858     67.3925      1.5107   -102.8700
  1129.0000     22.2721    265.2775     65.1153     46.8195     48.5975     74.6321     78.3066     78.8301     78.6304     79.3241     81.3190     79.5996     75.9463      0.0000   -102.8700
  1128.5000     21.8905    263.3217     64.9822     54.7389     50.5619     88.3695     90.9303     91.8028     92.9484     92.9259     95.4198     93.8001     89.4752      0.0000   -102.8700
  1128.0000     20.9380    262.6247     65.1073     59.6819     57.0268     96.4386     98.5916    100.2730    102.2506    101.2727    103.7467    102.0107     97.5377      0.0000   -102.7500
  1127.5000     23.8809    262.5432     65.0520     60.1399     65.6148     98.1044     99.5220    100.8634    102.6804    101.8311    104.2068    102.5983     98.8180      0.0000   -102.7500
  1127.0000     28.5335    262.5258     64.7255     59.7878     73.7002     99.1877     99.5871    100.3755    102.0731    101.0075    103.3477    102.3293     99.4712      0.0000   -102.7500
  1126.5000     31.3627    262.5479     64.9502     60.0786     74.1823     99.9359    100.3950    101.5769    103.3885    101.8128    103.5825    102.3512    100.3240      0.0000   -102.7500
  1126.0000     29.1992    262.5621     64.9830     60.4160     73.2401     99.9207    100.9752    102.7319    104.7063    102.7486    104.4939    102.7063    100.7144      0.0000   -102.7500
  1125.5000     20.9080    262.6057     64.8623     60.6908     72.5932     99.6895    100.5664    102.9612    105.5301    103.4045    105.2378    103.2917    101.0884      0.0000   -102.7500
  1125.0000     16.8167    262.6195     64.9049     61.0011     72.8443     99.2870     99.8081    102.8275    105.8567    104.2969    106.3402    104.0435    101.1388      0.0000   -102.7500
  1124.5000     23.3519    262.6253     65.1761     60.7357     73.9245     98.3708     99.3035    102.3311    104.8874    103.6426    105.7245    103.5909    100.6082      0.0000   -102.8700
  1124.0000     31.7344    262.6913     64.8205     60.7157     75.7680     97.9694     99.6825    102.7966    105.0297    103.5262    104.8361    102.7294     99.7925      0.0000   -102.8700
  1123.5000     34.9668    262.7057     65.0082     61.1793     77.1478     98.4304    100.5771    103.9037    106.0200    104.3005    105.2961    103.0054     99.7385      0.0000   -102.8700
  1123.0000     30.3126    262.7042     64.9441     62.2753     77.0633     99.3275    102.6897    106.5414    107.6107    105.6026    106.5671    104.3245    100.6329      0.0000   -102.8700
  1122.5000     25.0067    262.7598     64.8961     62.9498     76.5310     99.9430    103.7283    107.7669    108.3175    106.3236    107.2706    105.0860    101.2490      0.0000   -103.2500
  1122.0000     24.5605    262.7709     64.9087     62.4449     76.0250     99.6714    102.9357    106.2713    106.6997    104.9578    106.0927    104.2391    100.7894      0.0000   -103.2500
  1121.5000     24.6276    262.7951     64.8155     61.2998     76.1180     98.0977    101.4943    104.3730    104.7656    103.2709    104.1466    102.5226     98.9078      0.0000   -103.2500
  1121.0000     21.0973    262.8454     64.9622     60.2525     76.4629     96.5275    100.5051    103.3631    103.5708    102.3083    102.8263    100.8821     96.8532      0.0000   -103.5000
  1120.5000     17.6973    262.8334     64.7770     60.8766     76.4380     96.7099    101.2315    104.9010    105.1536    103.4860    103.8763    101.7001     97.2618      0.0000   -103.5000
  1120.0000     19.6928    262.7964     64.8867     62.2818     76.2610     97.9042    102.4838    106.9861    107.7762    105.7942    106.0561    103.4608     98.9494      0.0000   -103.5000
  1119.5000     21.5154    262.7529     64.6701     63.2396     76.6367     99.7231    104.1880    108.8152    109.1733    106.5844    107.1039    104.4232    100.3685      0.0000   -103.0000
  1119.0000     20.2711    262.7646     64.9585     63.3497     78.4143    100.3510    105.1530    109.2720    109.0217    106.1091    106.5897    104.2346    100.4644      0.0000   -103.0000
  1118.5000     21.3862    262.8325     64.7535     62.4162     79.4010     99.3659    104.6596    108.3793    107.7438    104.8722    104.7500    102.1322     98.6886      0.0000   -103.0000
  1118.0000     23.4471    262.9089     64.9014     62.1649     78.5790     99.4953    105.2463    108.8039    107.1438    103.8573    103.4191    101.2172     98.0828      0.0000   -103.0000
  1117.5000     25.5578    262.8817     64.7202     62.4342     77.8914    100.7170    105.6794    108.3348    106.5687    103.5864    103.6662    102.3556     99.5935      0.0000   -102.7500
  1117.0000     28.3034    262.8065     64.9514     62.6260     77.1117    101.4832    105.8366    107.9379    106.2320    103.9105    104.2074    103.2655    100.7248      0.0000   -102.7500
  1116.5000     25.2588    262.7866     64.9441     63.4297     77.0469    102.6133    106.9440    109.2490    107.9290    105.6663    106.0329    104.8452    102.2286      0.0000   -102.7500
  1116.0000     23.7603    262.7761     64.8427     63.4599     77.9458    103.0264    107.0576    109.1820    108.6560    106.3504    106.8437    105.4696    102.7588      0.0000   -102.6200
  1115.5000     30.3634    262.7691     64.8255     63.0087     78.5153    102.7632    106.5639    108.6774    107.4638    105.3264    106.4095    105.2825    102.3596      0.0000   -102.6200
  1115.0000     37.0572    262.8492     64.7409     63.0600     78.5977    102.2363    106.1139    108.5449    106.9753    105.1712    106.3661    105.4739    102.3506      0.0000   -102.6200
  1114.5000     38.3264    262.8401     64.9266     63.1675     78.8240    101.7700    105.4934    107.8625    107.0899    105.5780    106.6209    106.0619    102.7415      0.0000   -102.6200
  1114.0000     29.1339    262.8188     64.6237     63.3662     79.2538    102.2722    105.9532    108.3745    107.4030    105.5016    106.5674    106.4060    103.4274      0.0000   -102.6200
