~Version Information
VERS.                      2.0: CWLS Log ASCII Standard - VERSION 2.0
WRAP.                       NO: One line per depth step
~Well Information Block
STRT.FT              8295.5000: START DEPTH
STOP.FT                 1.0000: STOP DEPTH
STEP.FT                -0.5000: STEP
NULL.                -999.2500: NULL VALUE
COMP.          Apex Energy LLC: COMPANY
WELL.            Fatur Pad 10H: WELL
FLD.                 Marcellus: FIELD
LOC.           Lat 40.426716--Long -79.54976: LOCATION
CNTY.              Westmorland: COUNTY
SRVC.          NINE ENERGY SERVICE: SERVICE COMPANY
DATE.          Wed Jun 06 13-47-35 2018: LOG DATE
UWI.           37-129-28930-00-01: UNIQUE WELL ID
STAT.                       Pa: STATE
~Curve Information Block
DEPT.FT            0 000 00 00: Depth
GR.GAPI                      0: Gamma Ray
TT3FT.USEC                   0: 3FT Travel Time
Temp.DEGF                    0: Integral Temperature
AMP3FT.MV                    0: AMP3FT Amplitude
AMP5FT.MV                    0: AMP5FT Amplitude
AMPS1.                       0: AMPS1 Amplitude
AMPS2.                       0: AMPS2 Amplitude
AMPS3.                       0: AMPS3 Amplitude
AMPS4.                       0: AMPS4 Amplitude
AMPS5.                       0: AMPS5 Amplitude
AMPS6.                       0: AMPS6 Amplitude
AMPS7.                       0: AMPS7 Amplitude
AMPS8.                       0: AMPS8 Amplitude
CCL.                         0: Casing Collar Locator
LSPD.FT/MIN                  0: Line Speed
~Parameter Information Block
~A  Depth        GR        TT3FT        Temp       AMP3FT      AMP5FT      AMPS1       AMPS2       AMPS3       AMPS4       AMPS5       AMPS6       AMPS7       AMPS8        CCL         LSPD    
# ...
  3339.5000     77.5659    308.4433     90.5429      8.7784      4.0041     13.6358     12.3721     12.1807     13.0143     12.6640     13.3922     14.3239     15.6705      0.0000    -95.6200
  3339.0000     79.7944    295.5488     90.5076      8.8850      4.2673     13.8365     12.8158     12.4966     13.1080     12.8316     13.2330     14.0120     15.5371      0.0000    -95.7500
  3338.5000     74.6466    275.1507     90.6052      9.6323      4.3211     14.8620     14.3867     13.9288     14.3772     13.7897     13.9698     14.8774     16.2078      0.0000    -95.7500
  3338.0000     73.3567    267.8080     90.7229     10.8390      4.7678     16.9930     16.6782     16.0205     16.4903     15.8389     15.9508     16.8779     17.8521      0.0000    -95.7500
  3337.5000     78.6317    265.9945     90.6061     12.5328      5.7792     20.1243     19.6918     19.2187     19.4475     19.2021     19.2901     20.0088     20.9538      0.0000    -95.6200
  3337.0000     89.3179    264.7000     90.6187     14.6800      8.0198     23.8273     23.5413     23.7340     24.0377     23.6017     23.3391     23.3492     24.4052      0.0000    -95.6200
  3336.5000     92.9460    263.7073     90.7229     16.9057     10.6016     27.0044     28.1030     28.8913     29.2795     27.9209     26.8076     25.7397     26.5188      0.0000    -95.6200
  3336.0000     96.2784    263.0146     90.6359     19.4517     12.8680     30.3542     32.9739     34.2678     34.2991     32.6466     31.1688     29.1933     29.2410      0.0000    -96.0000
  3335.5000     91.8645    262.5432     90.6802     22.4234     15.1477     34.4046     37.5914     39.3663     39.3068     37.5199     35.7530     33.7697     33.4969      0.0000    -96.0000
  3335.0000     91.7079    262.3607     90.6430     24.5109     16.4872     39.3941     41.3155     41.2871     40.4466     38.9612     38.4028     38.2781     39.2112      0.0000    -96.0000
  3334.5000     98.1259    262.0258     90.6449     26.7753     16.2268     45.2855     45.6923     43.2953     41.4579     41.0486     42.8403     44.1263     45.7425      0.0000    -95.7500
  3334.0000    101.9664    261.7147     90.4672     28.0298     16.3648     46.7487     46.9207     44.7238     43.8886     44.2961     46.5252     47.1404     47.8258      0.0000    -95.7500
  3333.5000    105.0368    261.8720     90.7735     26.8902     17.3733     43.4217     43.7552     42.8459     43.5922     43.5890     44.5190     44.7406     44.8942      0.0000    -95.7500
  3333.0000    102.5694    262.1053     90.3545     25.8498     16.6241     41.7169     42.7467     42.6475     42.7311     41.6937     41.2498     41.6628     42.5205      0.0000    -95.6200
  3332.5000     95.1701    262.1718     90.6385     25.9440     16.2703     41.0154     43.3114     43.9800     44.3037     42.8500     41.5068     40.4721     41.3831      0.0000    -95.6200
  3332.0000     81.5890    262.4088     90.6186     24.5234     15.4408     38.9366     41.8736     41.8549     41.7693     39.8493     38.9814     37.8392     38.7696      0.0000    -95.6200
  3331.5000     67.7129    262.4226     90.4669     23.0903     13.3893     35.9742     38.9617     39.2360     39.1125     37.7162     37.8167     36.7729     36.3113      0.0000    -95.7500
  3331.0000     65.3851    262.5283     90.4496     21.5928     13.4059     31.3198     33.1545     34.7111     36.0979     36.6018     37.2173     35.6531     33.4059      0.0000    -95.7500
  3330.5000     77.6317    263.2238     90.5923     19.5728     14.5207     28.2097     28.9377     30.2119     31.2063     31.8564     32.9954     32.2088     30.9655      0.0000    -95.7500
  3330.0000     86.3662    263.7031     90.6692     19.2000     12.4748     29.3862     29.8360     30.1022     29.7203     29.4839     30.6035     30.8414     31.4129      0.0000    -95.7500
  3329.5000     88.3404    263.3788     90.5249     20.0036     10.1211     31.4773     32.2299     32.3610     31.5308     30.9241     31.2973     31.2773     32.2322      0.0000    -95.7500
  3329.0000     86.8062    263.1670     90.5294     19.1291     10.1638     30.2670     30.6514     30.6036     30.3389     29.5918     29.9272     29.9093     30.7950      0.0000    -95.7500
  3328.5000     81.8095    263.4254     90.6015     17.5787     10.5983     27.1756     27.5291     27.6873     28.1122     27.4100     27.6930     27.7600     28.0402      0.0000    -95.7500
  3328.0000     76.9653    263.9963     90.6096     16.7220      9.8084     25.6069     25.9576     25.6698     25.9942     25.7143     26.3577     26.6595     26.5944      0.0000    -95.8700
  3327.5000     72.6978    264.2116     90.5737     16.5183      9.5046     26.7866     26.7157     24.6394     24.4778     24.2204     25.6988     26.8100     27.8617      0.0000    -95.8700
  3327.0000     72.0949    263.9500     90.3808     16.4312      9.5522     27.8363     27.0412     24.6556     24.8279     24.3950     26.2454     27.5777     29.1144      0.0000    -95.8700
  3326.5000     72.7362    263.4682     90.5268     16.6744      9.1810     27.0045     26.1882     25.9257     27.2871     26.9676     27.7420     28.0613     28.6976      0.0000    -95.8700
  3326.0000     77.1638    263.4290     90.4471     16.8100      9.1734     26.0810     26.1171     26.8240     28.3230     28.0196     27.9614     27.5082     27.6833      0.0000    -95.8700
  3325.5000     81.8359    263.3918     90.5913     17.3962      9.4663     26.8002     27.4777     27.7482     28.2240     27.4596     28.1376     28.1757     28.1857      0.0000    -95.8700
  3325.0000     81.2695    263.6056     90.5699     17.7158      9.2422     26.8991     27.8429     28.1407     28.4796     27.4682     27.8171     28.2938     28.2465      0.0000    -95.8700
  3324.5000     86.6991    264.0732     90.4473     16.9224      8.9653     26.5894     26.8629     26.3535     26.8058     25.8062     25.8670     26.4326     27.5135      0.0000    -95.8700
  3324.0000    102.7340    264.2150     90.5259     16.1582      9.8414     26.6774     26.2037     24.7774     24.9561     23.8164     24.2692     25.1426     27.3163      0.0000    -95.8700
  3323.5000    100.8306    263.9347     90.4354     16.3100     10.5733     26.4420     26.3984     25.8229     26.1562     24.9040     25.2248     25.8094     27.1566      0.0000    -96.0000
  3323.0000     84.4735    263.5703     90.5076     17.1887      9.0990     26.0278     27.0983     27.7375     28.2941     27.6255     27.9009     27.8495     27.3444      0.0000    -96.0000
  3322.5000     88.1127    263.6810     90.5769     17.1887      7.9207     25.4747     26.8220     27.3255     27.4968     27.4021     27.7871     28.0881     27.1392      0.0000    -96.0000
  3322.0000     96.3339    264.2892     90.4353     15.5058      8.2683     24.3087     24.4156     23.2416     22.8066     23.3325     24.3527     25.5733     25.8954      0.0000    -96.0000
  3321.5000     92.1571    264.4578     90.4526     14.9356      8.2317     24.8772     23.9608     22.3273     22.1107     22.4164     23.0217     24.1819     25.8908      0.0000    -96.0000
  3321.0000     82.0527    263.7912     90.3642     16.0540      8.1375     26.0529     25.6063     25.3171     25.7821     25.5320     25.1914     25.4462     26.8488      0.0000    -96.0000
  3320.5000     70.6877    263.3419     90.5201     16.5982      7.9084     25.0837     25.6794     26.6829     27.4040     26.8997     26.8298     26.3500     26.5130      0.0000    -96.0000
  3320.0000     66.5057    263.5609     90.3679     15.9694      7.7622     23.4347     24.5217     25.4383     26.0425     25.2447     25.7182     25.1155     24.9842      0.0000    -96.1200
  3319.5000     74.0941    264.2033     90.3020     14.5465      7.9046     21.3651     22.5019     22.2845     22.9076     22.3994     22.6636     21.9463     22.4455      0.0000    -96.1200
  3319.0000     77.3020    264.8336     90.3680     13.3755      7.6587     21.0009     21.5084     19.9655     19.6069     19.1092     19.5276     19.7616     21.3854      0.0000    -96.1200
