~Version Information
VERS.                      2.0: CWLS Log ASCII Standard - VERSION 2.0
WRAP.                       NO: One line per depth step
~Well Information Block
STRT.FT              8295.5000: START DEPTH
STOP.FT                 1.0000: STOP DEPTH
STEP.FT                -0.5000: STEP
NULL.                -999.2500: NULL VALUE
COMP.          Apex Energy LLC: COMPANY
WELL.            Fatur Pad 10H: WELL
FLD.                 Marcellus: FIELD
LOC.           Lat 40.426716--Long -79.54976: LOCATION
CNTY.              Westmorland: COUNTY
SRVC.          NINE ENERGY SERVICE: SERVICE COMPANY
DATE.          Wed Jun 06 13-47-35 2018: LOG DATE
UWI.           37-129-28930-00-01: UNIQUE WELL ID
STAT.                       Pa: STATE
~Curve Information Block
DEPT.FT            0 000 00 00: Depth
GR.GAPI                      0: Gamma Ray
TT3FT.USEC                   0: 3FT Travel Time
Temp.DEGF                    0: Integral Temperature
AMP3FT.MV                    0: AMP3FT Amplitude
AMP5FT.MV                    0: AMP5FT Amplitude
AMPS1.                       0: AMPS1 Amplitude
AMPS2.                       0: AMPS2 Amplitude
AMPS3.                       0: AMPS3 Amplitude
AMPS4.                       0: AMPS4 Amplitude
AMPS5.                       0: AMPS5 Amplitude
AMPS6.                       0: AMPS6 Amplitude
AMPS7.                       0: AMPS7 Amplitude
AMPS8.                       0: AMPS8 Amplitude
CCL.                         0: Casing Collar Locator
LSPD.FT/MIN                  0: Line Speed
~Parameter Information Block
~A  Depth        GR        TT3FT        Temp       AMP3FT      AMP5FT      AMPS1       AMPS2       AMPS3       AMPS4       AMPS5       AMPS6       AMPS7       AMPS8        CCL         LSPD    
# ...
  2772.5000     57.2973    261.4703     82.6736     19.1037     14.9112     35.6085     32.8251     32.3142     33.0314     31.2192     29.8200     30.6224     35.8130      0.0000    -98.2500
  2772.0000     58.5006    261.5512     82.4199     18.4856     14.9884     34.6819     31.6640     30.9432     31.8473     30.2717     29.3492     29.7407     34.7340      0.0000    -98.2500
  2771.5000     53.3522    261.5103     82.5608     18.2716     15.2044     34.4782     31.6370     30.4027     31.4047     30.3489     29.2270     29.4641     34.2017      0.0000    -98.2500
  2771.0000     54.2455    261.3330     82.4605     18.6286     15.5493     35.3488     32.5596     30.9573     32.3615     31.5463     30.3097     30.0775     34.5870      0.0000    -98.2500
  2770.5000     58.0356    261.1662     82.6350     19.3218     15.7637     36.7379     33.8706     32.3010     33.9210     32.7219     31.8794     31.2471     35.6392      0.0000    -97.6200
  2770.0000     58.8034    261.0282     82.4144     20.1383     15.8328     38.0680     35.1956     33.6466     35.6518     34.3495     33.4427     32.5080     36.8345      0.0000    -97.6200
  2769.5000     60.0354    260.9651     82.4215     20.8461     16.0600     39.2414     36.7572     35.1573     37.1334     36.0347     34.9822     33.7316     37.8759      0.0000    -97.6200
  2769.0000     59.9452    260.8208     82.5417     21.6336     16.6458     40.3377     38.3545     37.1073     38.7794     37.4413     36.0165     34.8904     38.5607      0.0000    -97.7500
  2768.5000     62.4118    260.5698     82.5434     22.5245     17.4047     41.4863     39.6212     38.1845     40.1510     38.9749     37.3062     36.0429     39.3966      0.0000    -97.7500
  2768.0000     61.6219    260.3859     82.3019     23.0667     17.8779     42.3434     40.5780     38.5688     40.5827     40.1905     38.4332     36.8188     40.1883      0.0000    -97.7500
  2767.5000     56.7008    260.3701     82.5885     23.5437     18.3980     43.0074     41.4080     38.9738     41.1815     41.1596     39.6947     38.0633     41.3171      0.0000    -97.8700
  2767.0000     61.2547    260.4173     82.4713     23.7830     18.7575     44.1208     41.7785     39.1280     41.6340     41.5210     40.4995     39.0510     42.3797      0.0000    -97.8700
  2766.5000     65.1940    260.4884     82.4578     23.8427     19.0517     44.5756     41.8224     39.0304     41.9153     41.6634     40.6590     39.2344     42.6823      0.0000    -97.8700
  2766.0000     60.9858    260.4767     82.4615     23.8468     19.1269     44.4243     41.6249     39.2742     42.1160     41.8981     40.7589     39.2257     42.6125      0.0000    -98.0000
  2765.5000     55.2285    260.4330     82.5169     23.8278     18.8197     44.3937     41.8015     39.6221     42.1993     41.8253     40.6587     39.2061     42.6037      0.0000    -98.0000
  2765.0000     54.5345    260.4321     82.6203     23.8013     18.7267     44.3302     41.8030     39.6027     42.1948     41.6983     40.1798     38.8126     42.2865      0.0000    -98.0000
  2764.5000     58.9114    260.4343     82.5293     23.6133     18.7647     43.8113     41.1829     38.8825     41.3223     40.8730     39.3767     37.9970     41.7591      0.0000    -98.0000
  2764.0000     51.0294    260.4338     82.4459     23.0714     19.0642     43.2907     41.0142     38.3271     40.6715     39.7913     38.3152     37.0385     40.8108      0.0000    -98.3700
  2763.5000     37.4922    260.5336     82.3943     22.4131     19.1851     42.7256     40.9149     37.9719     40.2925     39.1450     37.3130     35.9571     39.4822      0.0000    -98.3700
  2763.0000     39.7496    260.6995     82.4343     21.9894     18.7824     42.2306     40.6106     37.8941     39.4056     38.3480     36.5381     34.9219     38.2859      0.0000    -98.3700
  2762.5000     55.0451    260.7668     82.5042     21.8455     18.3438     41.5420     40.4436     37.8827     39.0104     38.0113     36.3264     34.3940     37.5901      0.0000    -98.1200
  2762.0000     68.0628    260.8278     82.5015     21.6473     17.9635     40.4977     40.0536     37.5259     38.6033     37.8424     36.2378     34.1107     37.0250      0.0000    -98.1200
  2761.5000     70.5707    260.8659     82.4577     21.5274     17.9335     40.2654     40.1263     37.3947     38.4688     37.3700     36.0773     33.9995     36.7055      0.0000    -98.1200
  2761.0000     62.6168    260.8547     82.2737     21.3464     17.8345     40.2647     40.3072     37.6488     38.2449     36.9565     35.6835     33.4747     36.0304      0.0000    -98.1200
  2760.5000     54.9684    260.9137     82.4279     21.2013     17.4293     40.1767     40.5323     37.6379     38.0393     37.0253     35.5905     33.0735     35.3454      0.0000    -98.1200
  2760.0000     57.5585    261.0197     82.1762     21.1054     17.3758     39.4782     40.7855     37.7160     37.8036     36.7842     35.4217     33.0227     34.9634      0.0000    -98.1200
  2759.5000     61.7649    261.1774     82.5080     20.7266     17.2799     38.2470     40.0881     36.9677     36.8982     35.9812     34.9242     32.6876     33.9659      0.0000    -98.1200
  2759.0000     58.0452    261.2741     82.4028     20.4686     16.9652     37.8342     39.4619     35.7837     35.7270     35.1454     34.6991     32.5024     33.6090      0.0000    -98.2500
  2758.5000     51.0138    261.2252     82.4720     20.3092     16.7856     38.0523     39.1748     34.8623     34.8593     34.5303     34.3838     32.5399     33.9281      0.0000    -98.2500
  2758.0000     45.1626    261.2208     82.3935     19.9943     16.5924     38.1212     38.4201     33.6896     33.9214     33.9012     34.0331     32.5071     34.2855      0.0000    -98.2500
  2757.5000     38.7730    261.4009     82.1223     19.5993     16.2674     38.1048     37.4341     32.7503     33.0778     33.5776     33.8438     32.7280     34.8549      0.0000    -98.1200
  2757.0000     34.8368    261.4047     82.3246     19.3931     15.7632     37.5481     36.2721     32.2197     32.9290     33.5960     33.6443     32.8066     35.0323      0.0000    -98.1200
  2756.5000     43.1715    261.3822     82.1267     19.2864     15.2932     36.5296     34.8299     31.2910     32.7596     33.2869     33.0525     32.2076     34.7609      0.0000    -98.1200
  2756.0000     56.2335    261.4228     82.1894     19.0903     15.3114     36.0500     34.2507     30.8279     32.7320     32.8310     32.1825     31.2750     34.1242      0.0000    -98.3700
  2755.5000     58.0114    261.3685     82.3473     18.9079     15.5151     35.9350     34.2162     30.8684     32.5999     32.5566     31.8088     30.7005     33.5908      0.0000    -98.3700
  2755.0000     47.0304    261.3219     82.2467     18.8566     15.4497     35.8973     34.2746     30.8932     32.3128     32.1759     31.7936     30.6672     33.4983      0.0000    -98.3700
  2754.5000     34.6020    261.3555     82.1552     18.8940     15.2160     35.9189     34.6480     31.3190     32.5814     32.3009     31.6664     30.8301     33.5323      0.0000    -97.8700
  2754.0000     33.6251    261.4437     82.0007     18.8915     15.2300     35.9239     34.6822     31.3613     32.5866     32.3609     31.7099     30.8884     33.4601      0.0000    -97.8700
  2753.5000     38.8975    261.3647     82.0913     19.0601     15.2552     36.3047     34.7988     31.4353     33.1016     32.7691     32.1057     31.3223     33.8493      0.0000    -97.8700
  2753.0000     39.5820    261.1596     82.2321     19.3653     15.3841     36.7889     35.3085     31.7428     33.8729     33.7339     32.7370     31.5213     34.1552      0.0000    -97.8700
  2752.5000     36.4041    261.0537     82.3401     19.4365     15.5860     37.0191     35.4844     31.8660     33.9133     33.9521     32.8872     31.5255     34.1060      0.0000    -97.7500
  2752.0000     32.1297    261.0149     82.0208     19.5368     15.8236     37.1691     35.8249     32.1844     33.9163     33.9574     33.0056     31.9354     34.4496      0.0000    -97.7500
