~Version Information
VERS.                      2.0: CWLS Log ASCII Standard - VERSION 2.0
WRAP.                       NO: One line per depth step
~Well Information Block
STRT.FT              8295.5000: START DEPTH
STOP.FT                 1.0000: STOP DEPTH
STEP.FT                -0.5000: STEP
NULL.                -999.2500: NULL VALUE
COMP.          Apex Energy LLC: COMPANY
WELL.            Fatur Pad 10H: WELL
FLD.                 Marcellus: FIELD
LOC.           Lat 40.426716--Long -79.54976: LOCATION
CNTY.              Westmorland: COUNTY
SRVC.          NINE ENERGY SERVICE: SERVICE COMPANY
DATE.          Wed Jun 06 13-47-35 2018: LOG DATE
UWI.           37-129-28930-00-01: UNIQUE WELL ID
STAT.                       Pa: STATE
~Curve Information Block
DEPT.FT            0 000 00 00: Depth
GR.GAPI                      0: Gamma Ray
TT3FT.USEC                   0: 3FT Travel Time
Temp.DEGF                    0: Integral Temperature
AMP3FT.MV                    0: AMP3FT Amplitude
AMP5FT.MV                    0: AMP5FT Amplitude
AMPS1.                       0: AMPS1 Amplitude
AMPS2.                       0: AMPS2 Amplitude
AMPS3.                       0: AMPS3 Amplitude
AMPS4.                       0: AMPS4 Amplitude
AMPS5.                       0: AMPS5 Amplitude
AMPS6.                       0: AMPS6 Amplitude
AMPS7.                       0: AMPS7 Amplitude
AMPS8.                       0: AMPS8 Amplitude
CCL.                         0: Casing Collar Locator
LSPD.FT/MIN                  0: Line Speed
~Parameter Information Block
~A  Depth        GR        TT3FT        Temp       AMP3FT      AMP5FT      AMPS1       AMPS2       AMPS3       AMPS4       AMPS5       AMPS6       AMPS7       AMPS8        CCL         LSPD    
# ...
  7749.5000     82.3239    498.5573    158.9752      2.4776      1.2460      2.3266      2.3512      1.7953      1.2689      0.6310      0.6736      0.5083      2.4502      0.0000    -85.0000
  7749.0000     86.2827    513.0237    159.1515      2.7329      1.3908      1.9868      2.2972      1.4569      1.2848      1.0554      1.0707      0.8710      2.3510      0.0000    -85.0000
  7748.5000     95.5735    501.1675    159.0440      2.8957      1.7645      1.7198      1.9967      1.1738      1.5200      1.4948      1.0766      0.6312      2.1077      0.0000    -85.0000
  7748.0000     96.6850    496.6867    159.1303      2.9076      1.6632      2.5013      2.2526      1.1365      1.4427      1.3603      1.5765      1.2990      3.0040      0.0000    -84.5000
  7747.5000     90.7697    482.5811    159.0608      3.1509      1.4494      2.8058      2.4671      1.4534      1.9219      1.5207      2.4180      1.6298      3.4618      0.0000    -84.5000
  7747.0000     86.5174    460.2140    159.1712      2.9921      1.3866      1.9765      1.8665      1.1309      1.8803      1.4343      1.8689      0.8846      2.8174      0.0000    -84.5000
  7746.5000     87.6168    456.9610    159.1003      2.9845      1.1433      1.7577      1.9231      1.0235      1.9036      1.3651      1.7123      0.6072      2.5408      0.0000    -84.7500
  7746.0000     87.4671    456.1048    159.3170      3.0646      1.2505      1.6309      1.8148      1.0944      2.1177      1.3501      1.9362      0.4940      2.1891      0.0000    -84.7500
  7745.5000     84.4442    445.8399    159.1765      3.1779      1.5398      1.3952      1.7477      1.6521      2.7815      1.9113      2.1528      0.6574      1.9519      0.0000    -84.7500
  7745.0000     85.2302    425.4380    159.3844      3.0487      1.6141      1.1906      1.5492      1.8557      2.6607      1.9564      1.5632      0.4957      1.7638      0.0000    -85.0000
  7744.5000     90.9039    443.0601    159.3553      2.8635      1.3983      1.6330      1.6225      1.1327      1.4597      1.2232      1.0062      0.3302      1.9077      0.0000    -85.0000
  7744.0000     97.9881    469.9006    159.2598      2.8147      1.2892      1.7563      1.7502      1.0347      1.2680      1.1761      0.7850      0.0793      1.8011      0.0000    -84.6200
  7743.5000    103.1260    471.2145    159.0769      2.7734      1.4878      1.7126      1.8565      1.2084      1.5457      1.3010      0.5606      0.5260      2.1360      0.0000    -84.6200
  7743.0000    102.9382    481.8252    159.1814      2.8116      1.4195      1.7664      1.9582      1.0377      1.3202      1.4168      0.8201      1.0099      2.5487      0.0000    -84.6200
  7742.5000     92.9412    468.2487    159.4933      3.0183      1.2554      2.0296      1.9088      1.2941      1.4033      1.6941      1.2010      1.0932      2.6601      0.0000    -84.8700
  7742.0000     82.6316    459.1431    159.1931      2.8975      1.3679      1.6729      1.5138      1.1810      1.5185      1.2373      0.9615      0.7627      2.5215      0.0000    -84.8700
  7741.5000     81.2024    489.7730    159.3022      2.9965      1.2581      1.5127      1.5566      1.0059      1.6565      1.2593      0.9814      0.9535      2.7798      0.0000    -84.8700
  7741.0000     82.2216    504.3427    159.1452      3.0550      0.9994      1.9092      1.8456      1.1440      1.8849      1.4734      1.1385      0.7392      2.8839      0.0000    -84.6200
  7740.5000     83.7535    499.8560    159.2399      3.0435      1.1235      2.3112      1.9028      1.0223      1.9631      1.4937      1.4629      0.7050      3.0069      0.0000    -84.6200
  7740.0000     78.4629    491.2321    158.9570      3.3666      1.2828      2.6199      2.2674      1.2302      2.4929      1.9239      2.1922      1.1629      3.4955      0.0000    -84.6200
  7739.5000     73.9823    498.8593    159.0163      3.2629      1.3911      2.4993      2.0302      1.3668      2.3963      1.7945      2.0300      0.8199      3.2736      0.0000    -84.5000
  7739.0000     68.6017    504.5567    158.8527      2.9105      1.2828      2.0983      1.6860      0.9570      2.0786      1.3597      1.9222      0.4202      2.6780      0.0000    -84.5000
  7738.5000     67.4769    513.1483    158.9762      2.9362      1.2037      2.0313      1.9517      1.2352      2.3213      1.5890      2.1214      0.6772      2.8467      0.0000    -84.5000
  7738.0000     79.7529    520.1083    158.9844      2.9779      0.8854      2.1120      1.9315      1.2923      2.3337      1.8031      1.9477      0.8574      3.1593      0.0000    -84.7500
  7737.5000     89.1211    503.0840    159.0027      2.7917      0.7898      2.3316      1.8672      1.2420      2.1355      1.5135      1.3866      0.3791      3.1024      0.0000    -84.7500
  7737.0000     85.3257    490.4222    158.8277      2.6117      0.9931      2.3338      2.0186      1.5850      2.1160      1.3178      1.1925      0.4371      3.0372      0.0000    -84.6200
  7736.5000     81.0426    480.4886    158.9105      2.5080      1.1167      2.0535      1.9956      1.3538      1.9736      1.4041      1.3696      0.5961      2.8289      0.0000    -84.6200
  7736.0000     84.5607    491.7534    159.3212      2.6104      1.2070      2.1098      2.1947      1.3236      2.3315      1.6164      1.7517      0.6632      2.8247      0.0000    -84.6200
  7735.5000     84.5263    500.9379    158.9073      3.0669      1.5108      2.4619      2.5732      1.7811      2.6637      1.8283      2.2893      0.9952      2.9852      0.0000    -84.3700
  7735.0000     76.0129    501.5559    159.2699      2.9725      1.5662      2.3949      2.4054      1.5114      2.3316      1.5670      2.0465      0.7308      2.9443      0.0000    -84.3700
  7734.5000     70.6465    503.1857    158.9223      2.4409      1.1212      1.8129      1.5970      0.5975      1.3823      0.6458      0.9596     -0.1591      2.2813      0.0000    -84.3700
  7734.0000     75.9697    497.6725    158.8823      2.3655      1.0033      1.9209      1.4001      0.3555      1.0074      0.3461      0.3581     -0.2913      1.9890      0.0000    -84.2500
  7733.5000     86.9615    485.9490    158.9965      2.4300      1.1230      2.0235      1.2287      0.2169      0.7928      0.4666      0.5557      0.1440      2.1308      0.0000    -84.2500
  7733.0000     86.4604    481.4563    159.1172      2.6616      1.1027      1.8074      0.9917      0.3598      0.8457      0.6119      1.1626      0.9892      2.9265      0.0000    -84.2500
  7732.5000     82.2905    483.8434    158.9775      3.0126      1.0558      2.5426      1.5253      1.2527      1.8386      1.5535      1.9346      1.4987      3.4581      0.0000    -84.5000
  7732.0000     96.3472    481.9817    159.0089      3.0536      0.8994      2.7524      1.7584      1.2197      2.2201      1.8166      2.0878      1.3396      3.4842      0.0000    -84.5000
  7731.5000    112.3974    505.2217    158.8056      2.6965      0.9445      2.2116      1.6657      0.9016      1.8111      1.2912      1.2810      0.9686      3.3077      0.0000    -84.5000
  7731.0000    107.1005    522.1826    158.8600      2.5796      1.1629      2.2721      1.8743      1.2676      1.5436      1.1151      0.7955      0.5735      3.0520      0.0000    -84.3700
  7730.5000     90.1050    517.6818    159.0090      2.9029      1.4682      2.8330      2.0422      1.1430      1.4789      1.3195      1.3375      0.8858      3.1628      0.0000    -84.3700
  7730.0000     82.1738    502.5431    158.7979      2.8997      1.4879      2.8118      1.7867      0.6025      1.1586      1.1183      1.7041      1.0703      3.4917      0.0000    -84.3700
  7729.5000     85.1693    520.2046    159.0779      2.8212      1.6035      2.4723      1.7436      0.5929      0.9763      1.0680      1.7255      0.7940      3.4558      0.0000    -84.6200
  7729.0000     94.3851    520.6856    158.8193      2.6684      1.5411      1.9600      1.6001      0.6990      0.8873      1.0845      1.5081      0.6288      3.1302      0.0000    -84.6200
