~Version Information
VERS.                      2.0: CWLS Log ASCII Standard - VERSION 2.0
WRAP.                       NO: One line per depth step
~Well Information Block
STRT.FT              8295.5000: START DEPTH
STOP.FT                 1.0000: STOP DEPTH
STEP.FT                -0.5000: STEP
NULL.                -999.2500: NULL VALUE
COMP.          Apex Energy LLC: COMPANY
WELL.            Fatur Pad 10H: WELL
FLD.                 Marcellus: FIELD
LOC.           Lat 40.426716--Long -79.54976: LOCATION
CNTY.              Westmorland: COUNTY
SRVC.          NINE ENERGY SERVICE: SERVICE COMPANY
DATE.          Wed Jun 06 13-47-35 2018: LOG DATE
UWI.           37-129-28930-00-01: UNIQUE WELL ID
STAT.                       Pa: STATE
~Curve Information Block
DEPT.FT            0 000 00 00: Depth
GR.GAPI                      0: Gamma Ray
TT3FT.USEC                   0: 3FT Travel Time
Temp.DEGF                    0: Integral Temperature
AMP3FT.MV                    0: AMP3FT Amplitude
AMP5FT.MV                    0: AMP5FT Amplitude
AMPS1.                       0: AMPS1 Amplitude
AMPS2.                       0: AMPS2 Amplitude
AMPS3.                       0: AMPS3 Amplitude
AMPS4.                       0: AMPS4 Amplitude
AMPS5.                       0: AMPS5 Amplitude
AMPS6.                       0: AMPS6 Amplitude
AMPS7.                       0: AMPS7 Amplitude
AMPS8.                       0: AMPS8 Amplitude
CCL.                         0: Casing Collar Locator
LSPD.FT/MIN                  0: Line Speed
~Parameter Information Block
~A  Depth        GR        TT3FT        Temp       AMP3FT      AMP5FT      AMPS1       AMPS2       AMPS3       AMPS4       AMPS5       AMPS6       AMPS7       AMPS8        CCL         LSPD    
  8295.5000   -999.2500   -999.2500   -999.2500   -999.2500   -999.2500   -999.2500   -999.2500   -999.2500   -999.2500   -999.2500   -999.2500   -999.2500   -999.2500   -999.2500      0.5000
  8295.0000   -999.2500   -999.2500   -999.2500   -999.2500   -999.2500   -999.2500   -999.2500   -999.2500   -999.2500   -999.2500   -999.2500   -999.2500   -999.2500   -999.2500      0.5000
  8294.5000   -999.2500   -999.2500   -999.2500   -999.2500   -999.2500   -999.2500   -999.2500   -999.2500   -999.2500   -999.2500   -999.2500   -999.2500   -999.2500   -999.2500     -8.8700
  8294.0000   -999.2500   -999.2500   -999.2500   -999.2500   -999.2500   -999.2500   -999.2500   -999.2500   -999.2500   -999.2500   -999.2500   -999.2500   -999.2500   -999.2500    -19.1200
  8293.5000   -999.2500   -999.2500   -999.2500   -999.2500   -999.2500   -999.2500   -999.2500   -999.2500   -999.2500   -999.2500   -999.2500   -999.2500   -999.2500   -999.2500    -19.1200
  8293.0000   -999.2500   -999.2500   -999.2500   -999.2500   -999.2500   -999.2500   -999.2500   -999.2500   -999.2500   -999.2500   -999.2500   -999.2500   -999.2500   -999.2500    -31.5000
  8292.5000   -999.2500   -999.2500   -999.2500   -999.2500   -999.2500   -999.2500   -999.2500   -999.2500   -999.2500   -999.2500   -999.2500   -999.2500   -999.2500   -999.2500    -44.6200
  8292.0000   -999.2500   -999.2500   -999.2500   -999.2500   -999.2500   -999.2500   -999.2500   -999.2500   -999.2500   -999.2500   -999.2500   -999.2500   -999.2500   -999.2500    -44.6200
  8291.5000   -999.2500   -999.2500   -999.2500   -999.2500   -999.2500   -999.2500   -999.2500   -999.2500   -999.2500   -999.2500   -999.2500   -999.2500   -999.2500      0.0000    -48.0000
  8291.0000   -999.2500   -999.2500   -999.2500   -999.2500   -999.2500   -999.2500   -999.2500   -999.2500   -999.2500   -999.2500   -999.2500   -999.2500   -999.2500      0.0000    -48.0000
  8290.5000    107.9390   -999.2500   -999.2500   -999.2500   -999.2500   -999.2500   -999.2500   -999.2500   -999.2500   -999.2500   -999.2500   -999.2500   -999.2500      0.0000    -50.1200
  8290.0000    110.1577   -999.2500   -999.2500   -999.2500   -999.2500   -999.2500   -999.2500   -999.2500   -999.2500   -999.2500   -999.2500   -999.2500   -999.2500      0.0000    -50.1200
  8289.5000    110.9157   -999.2500   -999.2500   -999.2500   -999.2500   -999.2500   -999.2500   -999.2500   -999.2500   -999.2500   -999.2500   -999.2500   -999.2500      0.0000    -51.2500
  8289.0000    115.8755   -999.2500   -999.2500   -999.2500   -999.2500   -999.2500   -999.2500   -999.2500   -999.2500   -999.2500   -999.2500   -999.2500   -999.2500      0.0000    -52.2500
  8288.5000    116.4265   -999.2500   -999.2500   -999.2500   -999.2500   -999.2500   -999.2500   -999.2500   -999.2500   -999.2500   -999.2500   -999.2500   -999.2500      0.0000    -52.2500
  8288.0000    109.0452   -999.2500   -999.2500   -999.2500   -999.2500   -999.2500   -999.2500   -999.2500   -999.2500   -999.2500   -999.2500   -999.2500   -999.2500      0.0000    -54.5000
  8287.5000    104.1231   -999.2500   -999.2500   -999.2500   -999.2500   -999.2500   -999.2500   -999.2500   -999.2500   -999.2500   -999.2500   -999.2500   -999.2500      0.0000    -54.5000
  8287.0000    108.2542   -999.2500   -999.2500   -999.2500   -999.2500   -999.2500   -999.2500   -999.2500   -999.2500   -999.2500   -999.2500   -999.2500   -999.2500      0.0000    -57.8700
  8286.5000    110.9610   -999.2500   -999.2500   -999.2500   -999.2500   -999.2500   -999.2500   -999.2500   -999.2500   -999.2500   -999.2500   -999.2500   -999.2500      0.0000    -57.8700
  8286.0000    105.0137   -999.2500   -999.2500   -999.2500     -0.6346   -999.2500   -999.2500   -999.2500   -999.2500   -999.2500   -999.2500   -999.2500   -999.2500      0.0000    -57.8700
  8285.5000    102.4254   -999.2500   -999.2500   -999.2500     -0.5485   -999.2500   -999.2500   -999.2500   -999.2500   -999.2500   -999.2500   -999.2500   -999.2500      0.0000    -59.8700
  8285.0000    102.5100      0.3966   -999.2500     -0.3202      0.1012     -9.5627     -1.1686     -2.5203     -2.1544     -1.8238     -1.5290     -1.4516     -1.5644      0.0000    -59.8700
  8284.5000    107.2864     15.8651   -999.2500     -0.2007      1.0357     -9.0951     -1.0464     -2.3953     -1.9681     -1.6842     -1.3803     -1.3587     -1.3879      0.0000    -62.5000
  8284.0000    117.0804    130.1787   -999.2500      0.6760      1.1038     -5.6318     -0.1560     -1.5198     -0.6305     -0.6738     -0.3244     -0.7140     -0.1958      0.0000    -62.5000
  8283.5000    118.3711    299.9648   -999.2500      1.9938      0.8028     -0.4334      1.1506     -0.2460      1.2707      0.7771      1.1017      0.1717      1.3266      0.0000    -63.8700
  8283.0000    111.8011    351.6837   -999.2500      2.5269      0.8386      1.2732      1.5999      0.3636      1.7517      1.1324      1.4717      0.4095      1.8145      0.0000    -63.8700
  8282.5000    104.1979    354.8716   -999.2500      2.7364      1.0279      1.4889      1.6624      0.7933      1.4723      0.9943      1.6455      0.3983      2.0154      0.0000    -64.7500
  8282.0000     99.7103    355.2039   -999.2500      2.7540      1.1005      1.5751      1.5775      1.0993      1.4979      1.2216      1.6240      0.6096      2.1774      0.0000    -64.7500
  8281.5000     90.9179    356.9094   -999.2500      2.5759      1.2428      1.6520      1.4961      1.0637      1.6442      1.7235      1.6504      0.7617      2.2902      0.0000    -65.5000
  8281.0000     72.9245    377.4361   -999.2500      2.6812      1.5509      2.3948      2.0095      1.1201      1.7961      2.1336      1.8369      1.1214      2.6583      0.0000    -65.5000
  8280.5000     66.8997    429.4844    165.6301      2.5341      2.1662      3.8448      3.2899      1.7188      1.6913      2.0392      1.6143      1.5310      3.0973      0.0000    -65.3700
  8280.0000     82.2950    417.9302    165.4798      2.0025      3.2441      3.6817      2.7945      1.3899      1.3886      2.0515      1.1206      0.8526      2.4355      0.0000    -65.3700
  8279.5000     96.1080    379.5033    165.5635      2.8613      2.6644      2.8204      2.6114      1.6436      3.2465      3.6505      3.2163      1.9135      2.8204      0.0000    -65.3700
  8279.0000     96.1626    369.7455    165.5162      3.4207      1.4291      2.7181      2.8654      2.6461      4.4976      4.3448      3.9416      2.5361      3.2933      0.0000    -65.3700
  8278.5000     96.6266    368.3664    165.5496      3.2397      1.9642      2.4549      2.7819      2.7242      3.9338      3.1322      2.8491      1.9262      3.0005      0.0000    -65.3700
  8278.0000     96.3406    368.6341    165.3896      3.2847      2.6494      2.1464      2.5929      2.5041      3.3512      2.5514      2.3516      1.9161      2.6261      0.0000    -65.1200
  8277.5000     91.8454    367.8847    165.9366      3.2343      2.5608      1.6017      2.5217      2.9630      3.4270      3.1460      2.9646      1.9383      2.2859      0.0000    -65.1200
  8277.0000     99.8010    367.6817    165.6349      4.3057      1.9663      3.2223      4.6597      4.6883      5.3249      5.8962      5.5671      3.4163      4.5159      0.0000    -65.2500
  8276.5000    107.0270    370.0709    165.5222      5.3183      1.5692      5.1333      6.5355      5.0947      5.9466      8.6657      6.7459      3.8500      6.6818      0.0000    -65.2500
  8276.0000     96.5489    372.9183    165.4072      3.8301      1.9995      3.9483      4.2318      2.9037      3.5750      4.9432      3.6621      2.1246      4.8301      0.0000    -66.7500
  8275.5000     88.1162    368.9077    165.5525      2.8909      1.9072      2.7558      2.9077      2.2892      2.6181      2.2175      1.9565      1.3347      2.8279      0.0000    -66.7500
  8275.0000     89.7406    360.2591    165.4369      2.3172      2.2533      1.9608      2.5023      2.3129      1.8979      1.2779      1.1331      0.7506      1.6110      0.0000    -66.7500
