~Version Information
VERS.                      2.0: CWLS Log ASCII Standard - VERSION 2.0
WRAP.                       NO: One line per depth step
~Well Information Block
STRT.FT              8295.5000: START DEPTH
STOP.FT                 1.0000: STOP DEPTH
STEP.FT                -0.5000: STEP
NULL.                -999.2500: NULL VALUE
COMP.          Apex Energy LLC: COMPANY
WELL.            Fatur Pad 10H: WELL
FLD.                 Marcellus: FIELD
LOC.           Lat 40.426716--Long -79.54976: LOCATION
CNTY.              Westmorland: COUNTY
SRVC.          NINE ENERGY SERVICE: SERVICE COMPANY
DATE.          Wed Jun 06 13-47-35 2018: LOG DATE
UWI.           37-129-28930-00-01: UNIQUE WELL ID
STAT.                       Pa: STATE
~Curve Information Block
DEPT.FT            0 000 00 00: Depth
GR.GAPI                      0: Gamma Ray
TT3FT.USEC                   0: 3FT Travel Time
Temp.DEGF                    0: Integral Temperature
AMP3FT.MV                    0: AMP3FT Amplitude
AMP5FT.MV                    0: AMP5FT Amplitude
AMPS1.                       0: AMPS1 Amplitude
AMPS2.                       0: AMPS2 Amplitude
AMPS3.                       0: AMPS3 Amplitude
AMPS4.                       0: AMPS4 Amplitude
AMPS5.                       0: AMPS5 Amplitude
AMPS6.                       0: AMPS6 Amplitude
AMPS7.                       0: AMPS7 Amplitude
AMPS8.                       0: AMPS8 Amplitude
CCL.                         0: Casing Collar Locator
LSPD.FT/MIN                  0: Line Speed
~Parameter Information Block
~A  Depth        GR        TT3FT        Temp       AMP3FT      AMP5FT      AMPS1       AMPS2       AMPS3       AMPS4       AMPS5       AMPS6       AMPS7       AMPS8        CCL         LSPD    
# ...
  6090.5000     82.9620    314.1134    131.2613      5.0060      1.6690      7.4768      6.8650      6.4368      7.0966      6.5158      6.1865      6.1459      8.7585      0.0000    -82.6200
  6090.0000     88.1683    318.5555    131.0779      4.7643      1.3431      6.7018      6.1842      5.9485      6.2352      5.6931      5.5521      5.5221      7.7345      0.0000    -83.8700
  6089.5000     92.5964    333.5630    131.0408      4.2317      1.2215      5.6648      5.4497      4.9708      4.9644      4.4143      4.1915      4.1606      6.2673      0.0000    -83.8700
  6089.0000     91.4809    343.0237    131.2497      4.0899      1.4015      5.3130      5.3531      4.5153      4.6925      4.0903      3.8586      3.4755      5.5666      0.0000    -83.8700
  6088.5000     82.3683    362.7970    131.1364      3.7911      1.4060      4.8152      4.9563      4.0610      4.0917      3.5288      3.7259      3.0361      5.1711      0.0000    -83.8700
  6088.0000     81.6678    382.1500    131.0309      3.2079      1.1460      4.0297      4.1062      2.9755      3.0954      2.5071      2.9688      2.2977      4.3824      0.0000    -83.8700
  6087.5000     83.2572    385.0827    131.2014      2.9817      1.2494      3.5776      3.4439      2.3917      2.6108      2.0514      2.3430      1.9920      3.9416      0.0000    -83.8700
  6087.0000     81.2177    386.1634    131.2087      2.9724      1.4564      3.1135      2.9452      2.2664      2.3946      1.8604      1.8283      1.8992      3.9578      0.0000    -84.1200
  6086.5000     80.5983    386.9472    131.2514      2.9096      1.6907      2.6403      2.8041      1.9175      2.2420      1.8197      1.8607      1.8777      3.8559      0.0000    -84.1200
  6086.0000     80.1663    387.4635    131.2260      2.8705      1.7256      2.7679      2.9051      1.9426      2.2468      2.1126      2.1361      1.7907      3.7426      0.0000    -84.1200
  6085.5000     77.7092    387.4297    131.0806      2.8942      1.7713      3.2082      3.0425      2.2024      2.3271      2.3521      2.3220      1.8593      3.7113      0.0000    -84.2500
  6085.0000     73.1902    389.7626    130.9311      2.9937      1.7921      3.3428      3.2216      2.2447      2.3737      2.3088      2.3903      2.0467      3.5832      0.0000    -84.2500
  6084.5000     74.6784    390.2177    131.1066      3.1277      1.6641      3.4171      3.3465      2.1376      2.5236      2.0952      2.4841      1.8897      3.6324      0.0000    -84.0000
  6084.0000     79.7499    388.7620    131.1544      3.1678      1.3921      3.3647      3.2031      1.8636      2.5724      2.1038      2.6953      1.8431      3.7506      0.0000    -84.0000
  6083.5000     81.0283    388.8998    131.1727      2.9416      1.4380      3.1860      3.1152      1.8833      2.5226      2.0713      2.4185      1.5720      3.5813      0.0000    -84.0000
  6083.0000     82.6610    389.1499    131.1282      2.6297      1.7597      2.8454      2.7788      1.9637      2.3367      2.0069      2.2112      1.2202      3.1842      0.0000    -83.8700
  6082.5000     86.7793    390.5799    130.8768      2.5253      1.8212      2.6711      2.6063      1.8216      2.1114      2.0006      2.1858      1.2245      3.0184      0.0000    -83.8700
  6082.0000     77.4096    408.9624    131.1888      2.6011      1.5809      2.6948      2.5305      1.7292      1.9382      2.0642      2.1112      1.3366      2.9102      0.0000    -83.8700
  6081.5000     67.5272    410.3395    130.8868      2.5682      1.4962      2.4456      2.3720      1.5739      1.8824      1.8671      2.1853      1.1909      2.7457      0.0000    -84.1200
  6081.0000     70.5614    392.8585    130.9530      2.6369      1.4386      2.4818      2.5661      1.6689      2.0537      1.8965      2.1353      1.1531      2.8467      0.0000    -84.1200
  6080.5000     76.0854    387.5782    131.1194      2.8709      1.3229      2.5457      2.6785      1.8445      2.2623      2.2644      2.0285      1.3373      2.7620      0.0000    -84.1200
  6080.0000     83.0091    383.2226    131.2262      3.1210      1.4665      2.5808      2.8303      2.0612      2.5754      2.6091      2.6864      1.5883      2.9051      0.0000    -84.0000
  6079.5000     90.7415    379.9551    131.0202      3.0282      1.8002      2.4992      2.6963      1.8828      2.3635      2.1416      2.6762      1.3976      2.9157      0.0000    -84.0000
  6079.0000     90.7869    378.5527    131.0580      2.7138      1.5268      2.3616      2.4856      1.5052      1.8591      1.4323      1.8316      0.7915      2.8225      0.0000    -84.0000
  6078.5000     85.1440    386.3295    131.0616      2.6832      0.8724      2.3404      2.3563      1.6063      2.0555      1.3283      1.6762      0.5617      2.9100      0.0000    -84.2500
  6078.0000     78.7913    404.6287    131.0810      2.7968      1.0070      2.6204      2.5457      2.0652      2.4419      1.4595      2.0309      0.9747      3.1478      0.0000    -84.2500
  6077.5000     65.2086    409.7642    130.9648      2.9666      1.2433      2.6835      2.7152      2.2822      2.5085      1.9433      2.4698      1.4127      3.3224      0.0000    -84.2500
  6077.0000     54.2135    402.3201    130.8875      3.1906      1.3349      2.6661      2.8378      2.5188      2.7968      2.4686      2.8722      1.8375      3.5118      0.0000    -84.2500
  6076.5000     54.0459    389.4098    130.9137      3.1213      1.3029      3.1563      2.9103      2.5361      2.8035      2.3403      2.6574      2.0717      3.6714      0.0000    -84.2500
  6076.0000     61.2912    397.5941    130.9383      2.9521      1.2564      2.9099      2.7899      2.2856      2.6910      2.1500      2.2072      1.8650      3.2307      0.0000    -83.8700
  6075.5000     72.8889    392.9245    130.9848      2.9608      1.3239      2.8226      3.0989      2.4359      2.5158      2.1047      1.9205      1.8306      3.1752      0.0000    -83.8700
  6075.0000     81.1448    377.2867    130.9110      2.9460      1.7948      3.0980      3.4023      2.4837      2.3132      1.8822      1.6338      1.6866      3.4746      0.0000    -83.8700
  6074.5000     81.5448    357.6949    131.0370      3.0499      1.7844      3.7312      3.9884      2.6668      2.4015      1.9338      1.8049      1.9641      4.0358      0.0000    -84.0000
  6074.0000     69.7427    359.0313    130.8269      3.2084      1.2230      4.4723      4.4432      2.8124      2.6638      2.2876      2.1210      2.6198      4.7959      0.0000    -84.0000
  6073.5000     63.6606    355.6460    131.0452      3.5568      1.2297      5.2709      4.8946      3.4730      3.5927      3.2328      3.0820      3.4392      5.7209      0.0000    -84.0000
  6073.0000     76.6322    336.1042    130.7834      4.2138      1.5352      6.7415      6.1107      5.0508      5.5508      4.9386      4.7420      4.5665      7.0737      0.0000    -84.0000
  6072.5000     89.2417    318.6444    130.8542      5.1149      1.8551      8.5521      7.8184      6.9785      7.4841      6.8358      6.7620      6.0912      8.6391      0.0000    -84.0000
  6072.0000     91.3314    315.2468    130.8949      5.7785      2.0512      9.1502      8.4820      8.0864      8.7029      8.2806      8.0860      7.2434      9.5017      0.0000    -84.0000
  6071.5000     88.2793    314.4443    130.8641      5.8767      1.8461      8.8280      8.2981      7.8736      8.7889      8.2944      7.8254      7.3473      9.3968      0.0000    -84.0000
  6071.0000     93.4467    315.3556    130.9974      5.5285      1.6417      8.0552      7.8355      7.1420      7.7837      7.1346      6.7817      6.5238      8.6581      0.0000    -84.0000
  6070.5000    100.6322    317.4196    130.9566      4.9437      1.6158      7.1749      7.1042      6.0972      6.1991      5.6997      5.6432      5.5721      7.7320      0.0000    -84.0000
  6070.0000     95.4086    322.6432    130.6173      4.1105      1.7715      6.1707      6.1022      4.6930      4.6089      4.2854      4.2092      4.3631      6.3528      0.0000    -84.0000
