~Version Information
VERS.                      2.0: CWLS Log ASCII Standard - VERSION 2.0
WRAP.                       NO: One line per depth step
~Well Information Block
STRT.FT              8295.5000: START DEPTH
STOP.FT                 1.0000: STOP DEPTH
STEP.FT                -0.5000: STEP
NULL.                -999.2500: NULL VALUE
COMP.          Apex Energy LLC: COMPANY
WELL.            Fatur Pad 10H: WELL
FLD.                 Marcellus: FIELD
LOC.           Lat 40.426716--Long -79.54976: LOCATION
CNTY.              Westmorland: COUNTY
SRVC.          NINE ENERGY SERVICE: SERVICE COMPANY
DATE.          Wed Jun 06 13-47-35 2018: LOG DATE
UWI.           37-129-28930-00-01: UNIQUE WELL ID
STAT.                       Pa: STATE
~Curve Information Block
DEPT.FT            0 000 00 00: Depth
GR.GAPI                      0: Gamma Ray
TT3FT.USEC                   0: 3FT Travel Time
Temp.DEGF                    0: Integral Temperature
AMP3FT.MV                    0: AMP3FT Amplitude
AMP5FT.MV                    0: AMP5FT Amplitude
AMPS1.                       0: AMPS1 Amplitude
AMPS2.                       0: AMPS2 Amplitude
AMPS3.                       0: AMPS3 Amplitude
AMPS4.                       0: AMPS4 Amplitude
AMPS5.                       0: AMPS5 Amplitude
AMPS6.                       0: AMPS6 Amplitude
AMPS7.                       0: AMPS7 Amplitude
AMPS8.                       0: AMPS8 Amplitude
CCL.                         0: Casing Collar Locator
LSPD.FT/MIN                  0: Line Speed
~Parameter Information Block
~A  Depth        GR        TT3FT        Temp       AMP3FT      AMP5FT      AMPS1       AMPS2       AMPS3       AMPS4       AMPS5       AMPS6       AMPS7       AMPS8        CCL         LSPD    
# ...
   567.5000     19.0861    263.9376     59.0681     55.5658     73.3216     87.1379     92.2511     98.0600     97.8791     92.7199     90.5643     89.3798     88.0000      0.0000   -104.8700
   567.0000     24.5582    263.9052     58.9291     55.6615     73.9168     87.6541     93.6327     99.3154     98.3040     92.7554     90.6880     89.1158     87.6580      0.0000   -104.8700
   566.5000     25.6022    263.9537     58.9890     56.4523     73.2826     88.8265     94.9704    100.9028     99.6299     93.9206     91.8466     90.3131     89.1562      0.0000   -104.8700
   566.0000     22.0721    263.9920     59.0706     57.2478     72.0284     90.7729     96.4889    101.5200     99.9605     94.8606     93.2443     91.6985     91.2557      0.0000   -104.8700
   565.5000     21.0539    264.0022     58.9580     56.8680     72.2252     90.8380     95.7655     99.8313     98.3335     93.9866     92.8270     92.0061     91.7490      0.0000   -104.8700
   565.0000     21.5469    263.9895     59.2936     55.2707     73.9027     88.3353     92.5195     96.7498     96.0724     92.0194     90.5035     89.8062     89.6732      0.0000   -105.3700
   564.5000     24.8899    263.9387     59.0153     55.1241     71.7314     87.9565     92.2820     96.8842     96.3113     92.1896     90.3887     89.0837     88.8333      0.0000   -105.3700
   564.0000     28.9745    263.9041     59.0500     56.4297     65.7554     89.6471     94.9127    100.1115     98.9093     93.9487     92.1157     90.8238     90.0671      0.0000   -105.3700
   563.5000     27.5521    263.9667     59.0392     55.4435     61.0341     88.6437     93.8854     98.7946     97.2359     92.0356     89.5828     88.8676     88.4971      0.0000   -105.3700
   563.0000     27.0801    265.2610     59.0392     50.9200     55.9465     82.8115     87.1974     90.2000     87.8853     83.2401     80.9290     81.3608     82.3234      0.0000   -106.2500
   562.5000     33.4510    268.2953     59.0184     45.7366     57.1901     75.1565     79.2722     80.7888     78.2717     74.0614     72.4927     72.8064     74.5055      0.0000   -106.2500
   562.0000     33.6056    268.9213     58.9873     41.0877     58.7301     66.6194     70.6195     72.8769     71.4085     67.5308     66.3180     65.3586     66.1432      0.0000   -106.2500
   561.5000     26.1630    268.2322     59.0135     41.9692     58.3564     66.7343     70.9633     74.6424     73.2313     69.5441     68.6689     67.3857     66.5937      0.0000   -105.8700
   561.0000     25.7633    268.1474     59.2938     42.8729     56.5032     67.3933     71.6197     75.7275     74.7230     71.5585     70.4169     69.3263     67.7757      0.0000   -105.8700
   560.5000     29.4982    268.1227     58.9872     43.8943     55.7555     69.9582     73.2568     76.0808     76.0269     73.1993     72.4156     71.4423     69.9626      0.0000   -105.8700
   560.0000     29.1391    268.0466     59.0152     47.7232     54.7286     78.2385     80.3994     81.7969     81.7682     79.0661     78.9923     78.8981     77.9356      0.0000   -105.8700
   559.5000     28.6915    266.4742     59.1314     51.6814     52.7253     84.7369     87.5132     89.2120     88.8146     85.3314     85.0034     85.0144     84.8401      0.0000   -105.2500
   559.0000     27.7265    264.5435     58.9380     56.3568     56.3987     91.2091     95.1606     98.8319     97.8726     92.7950     91.6475     91.1236     91.7667      0.0000   -105.2500
   558.5000     24.0219    264.1814     59.0617     60.4579     65.7678     96.1090    100.8261    106.2206    105.1560     99.1674     97.6237     97.3809     97.3395      0.0000   -105.2500
   558.0000     24.9666    264.2071     59.0471     61.6433     74.7999     96.2760    101.2679    108.0448    107.2632    100.7278     99.7966     99.7474     98.4662      0.0000   -104.8700
   557.5000     30.4378    264.1805     58.9380     61.8737     82.2576     95.9371    100.7516    108.1315    107.7316    101.3692    100.5346    100.4872     98.8381      0.0000   -104.8700
   557.0000     31.9728    264.2009     59.0211     61.9532     84.0968     96.0181    100.9260    108.1021    107.5417    101.5891    100.8026    100.3677     98.7740      0.0000   -104.8700
   556.5000     25.5770    264.2467     58.9995     61.7234     84.3341     95.7660    101.1063    108.2595    107.0487    101.0257    100.0811     99.8554     98.2256      0.0000   -104.8700
   556.0000     24.2127    264.2240     58.9220     61.5849     83.9078     95.6728    101.4495    108.4605    107.0994    100.8031     99.7295     99.4779     97.7954      0.0000   -104.8700
   555.5000     32.4041    264.2006     58.9688     61.7524     82.8879     95.5785    101.9682    109.0240    107.7181    101.2355    100.1379     99.3613     97.4918      0.0000   -104.8700
   555.0000     38.3908    264.2282     58.9202     61.8074     81.1874     94.8039    101.8380    109.7366    108.6291    102.0158    100.1834     99.0177     96.7869      0.0000   -104.8700
   554.5000     37.7471    264.1670     58.8376     61.3747     79.4244     94.3298    101.0833    108.9478    108.0756    101.4761     99.4709     98.4660     96.2511      0.0000   -105.7500
   554.0000     34.5154    264.0481     59.2040     60.3819     78.9826     94.0750    100.4758    107.2872    106.1637     99.8733     97.8686     97.2170     95.4575      0.0000   -105.7500
   553.5000     28.7734    263.9258     58.9601     59.1091     79.4487     93.0390     99.3552    105.3481    103.9342     98.3092     95.9434     94.8058     93.3957      0.0000   -105.7500
   553.0000     22.7250    263.8994     58.8921     58.8760     79.1207     92.8361     99.2960    105.2572    103.3646     98.1768     95.5671     93.9566     92.7803      0.0000   -105.7500
   552.5000     23.2550    263.9326     58.8376     59.2645     78.3085     93.1841     99.5740    105.8880    104.2405     98.9538     96.2444     94.2851     93.5297      0.0000   -105.8700
   552.0000     29.9973    263.9453     59.0120     58.9282     77.8001     93.1962     99.1787    104.9661    103.5223     98.5860     96.2123     94.3543     93.6937      0.0000   -105.8700
   551.5000     32.6188    263.9487     58.7616     59.0873     77.1030     94.1659    100.2691    106.0328    103.9302     98.2454     95.6973     94.2848     94.0213      0.0000   -105.8700
   551.0000     28.4784    263.8929     58.9254     58.9102     77.3367     93.9677    100.0695    106.0745    104.1256     98.1403     95.2327     93.6801     93.5609      0.0000   -105.7500
   550.5000     22.6028    263.7624     59.1614     57.8663     78.1224     92.5758     97.7327    103.0850    101.5929     96.9621     94.7786     93.0772     92.4840      0.0000   -105.7500
   550.0000     22.2477    263.7602     58.8949     57.9902     78.1039     92.7163     97.9752    103.5278    101.6876     97.1872     94.9617     93.3065     92.6154      0.0000   -105.7500
   549.5000     26.7098    263.7931     58.7995     58.0989     77.2857     92.8408     98.1250    103.4938    101.8768     97.4223     95.0562     93.5085     92.5988      0.0000   -105.7500
   549.0000     25.2887    263.8020     58.9845     57.9727     77.3642     93.2618     98.0436    102.5573    101.3669     96.8799     94.5567     93.4597     93.0059      0.0000   -105.1200
   548.5000     22.7442    263.8452     58.8838     57.7966     77.6412     93.5705     98.1164    102.4306    101.0795     96.4849     94.1499     92.8835     93.0894      0.0000   -105.1200
   548.0000     21.3374    263.8947     58.8695     57.6660     76.6517     93.4072     98.1216    102.5851    100.6172     96.4919     94.3071     92.6831     92.7450      0.0000   -105.1200
   547.5000     17.2615    263.9571     58.7959     57.7861     75.0076     92.9199     97.9528    102.9281    100.7677     96.4058     94.2855     92.9205     92.5474      0.0000   -104.7500
   547.0000     15.9199    263.9378     58.8838     57.2968     74.2604     91.4396     96.6689    101.5262    100.0340     95.6531     93.8014     92.3578     91.8149      0.0000   -104.7500
