~Version Information
VERS.                      2.0: CWLS Log ASCII Standard - VERSION 2.0
WRAP.                       NO: One line per depth step
~Well Information Block
STRT.FT              8295.5000: START DEPTH
STOP.FT                 1.0000: STOP DEPTH
STEP.FT                -0.5000: STEP
NULL.                -999.2500: NULL VALUE
COMP.          Apex Energy LLC: COMPANY
WELL.            Fatur Pad 10H: WELL
FLD.                 Marcellus: FIELD
LOC.           Lat 40.426716--Long -79.54976: LOCATION
CNTY.              Westmorland: COUNTY
SRVC.          NINE ENERGY SERVICE: SERVICE COMPANY
DATE.          Wed Jun 06 13-47-35 2018: LOG DATE
UWI.           37-129-28930-00-01: UNIQUE WELL ID
STAT.                       Pa: STATE
~Curve Information Block
DEPT.FT            0 000 00 00: Depth
GR.GAPI                      0: Gamma Ray
TT3FT.USEC                   0: 3FT Travel Time
Temp.DEGF                    0: Integral Temperature
AMP3FT.MV                    0: AMP3FT Amplitude
AMP5FT.MV                    0: AMP5FT Amplitude
AMPS1.                       0: AMPS1 Amplitude
AMPS2.                       0: AMPS2 Amplitude
AMPS3.                       0: AMPS3 Amplitude
AMPS4.                       0: AMPS4 Amplitude
AMPS5.                       0: AMPS5 Amplitude
AMPS6.                       0: AMPS6 Amplitude
AMPS7.                       0: AMPS7 Amplitude
AMPS8.                       0: AMPS8 Amplitude
CCL.                         0: Casing Collar Locator
LSPD.FT/MIN                  0: Line Speed
~Parameter Information Block
~A  Depth        GR        TT3FT        Temp       AMP3FT      AMP5FT      AMPS1       AMPS2       AMPS3       AMPS4       AMPS5       AMPS6       AMPS7       AMPS8        CCL         LSPD    
# ...
  3885.5000     79.4275    313.2493     97.4905      4.2688      3.0240      3.8824      4.8847      4.5954      5.0883      4.7845      5.3801      4.9391      4.7930      0.0000    -95.1200
  3885.0000     68.0672    312.0480     97.5948      4.5375      2.6779      4.5459      5.5361      5.4670      5.5578      5.2158      5.6495      5.2907      5.2572      0.0000    -95.1200
  3884.5000     61.1050    311.4167     97.5359      4.4958      2.9547      4.6296      5.8364      5.5817      5.5859      4.9991      5.2426      4.8187      5.1830      0.0000    -94.8700
  3884.0000     73.9549    312.3914     97.6092      4.5046      3.4638      4.5841      5.7034      5.3807      5.5131      4.9666      5.1677      4.7819      5.2599      0.0000    -94.8700
  3883.5000     84.8210    312.7713     97.4145      4.8306      4.2688      5.0786      5.9501      5.8894      6.1579      5.7846      6.0202      5.5614      5.6620      0.0000    -94.8700
  3883.0000     81.5425    311.4387     97.4653      5.5078      5.3580      6.3674      6.9497      7.4165      7.8131      7.1115      7.4151      7.0093      6.8199      0.0000    -95.2500
  3882.5000     78.7259    308.4735     97.7427      6.5347      5.1682      8.1217      8.7687      9.1433      9.4355      8.6660      8.9798      8.9615      8.8110      0.0000    -95.2500
  3882.0000     83.7854    294.8830     97.5706      8.3002      4.3860     11.1410     11.8742     11.7984     11.8542     11.4151     11.6775     12.1112     12.1262      0.0000    -95.2500
  3881.5000     85.5806    277.6171     97.7139      9.6949      4.2758     13.1459     13.9935     13.9301     14.2560     13.8667     14.2156     14.5093     14.4528      0.0000    -95.1200
  3881.0000     80.0722    283.9497     97.6140      9.3310      4.7033     12.0326     12.9297     13.0781     13.8368     13.7693     14.3282     14.2077     13.9687      0.0000    -95.1200
  3880.5000     71.5628    290.6326     97.7980      9.1908      4.2068     11.6344     12.6809     12.7122     13.3344     13.5356     13.8737     13.5969     13.6899      0.0000    -95.1200
  3880.0000     59.7140    283.7969     97.5123      9.8506      4.1314     12.1600     13.2252     13.0373     13.3803     13.6685     13.8217     14.1010     14.9047      0.0000    -95.0000
  3879.5000     51.6841    298.3636     97.6287      8.6277      4.3276     10.7245     11.5965     11.1750     11.6813     11.2861     11.6113     12.0088     12.8819      0.0000    -95.0000
  3879.0000     55.0124    311.7382     97.7186      7.1484      3.9885      9.4443     10.3916     10.1245     10.3059      9.5055      9.3283      9.6190     10.1946      0.0000    -95.0000
  3878.5000     62.5581    315.0755     97.5923      5.8007      3.3692      7.0286      7.8356      7.7943      8.2451      7.9392      7.3020      7.4328      7.6762      0.0000    -95.0000
  3878.0000     66.4510    315.8304     97.6193      5.0578      3.1771      5.6840      6.2887      6.2519      6.8407      6.7897      6.5402      6.4515      6.4968      1.6870    -95.1200
  3877.5000     63.1483    315.0798     97.4461      4.9379      3.5644      5.6334      6.3868      6.0973      6.2704      5.8716      6.0188      6.0234      6.3316      0.0000    -95.1200
  3877.0000     56.7302    312.5322     97.7111      4.7880      3.6641      5.7126      6.6690      6.2337      6.1791      5.2290      5.4264      5.2697      6.0662      0.0000    -95.1200
  3876.5000     59.8730    311.6228     97.5867      4.6226      3.1577      5.3941      6.3224      5.8571      6.1539      4.8849      5.3780      5.0819      5.7355      0.0000    -94.7500
  3876.0000     67.9879    311.7513     97.3214      4.8790      2.8940      5.6257      6.2364      5.8083      6.4473      5.5013      5.9081      5.6138      6.1540      0.0000    -94.7500
  3875.5000     63.9876    311.6566     97.5360      5.1020      2.7987      5.7427      6.4102      6.4216      7.1187      6.3068      6.2676      6.0022      6.4346      0.0000    -94.7500
  3875.0000     53.8271    312.2113     97.5887      5.2213      2.8881      5.5393      6.3400      6.6528      7.1072      6.4038      6.2110      6.0944      6.5397      0.0000    -95.2500
  3874.5000     55.1252    312.3364     97.5378      5.4124      3.2316      5.8608      6.6090      6.7519      7.1038      6.5907      6.3888      6.4210      7.0258      0.0000    -95.2500
  3874.0000     66.6610    312.1543     97.4507      5.2837      3.2002      5.8226      6.7346      6.5097      6.6889      5.9542      6.1219      6.2174      6.7963      0.0000    -95.2500
  3873.5000     75.5358    312.1885     97.5560      4.9337      2.9305      5.1135      6.0711      5.9030      6.2489      5.4946      5.8616      5.6783      6.1401      0.0000    -94.8700
  3873.0000     72.8492    311.9157     97.4481      4.7552      2.6998      4.9631      5.9273      5.9369      6.2814      5.4973      5.7673      5.5437      6.0380      0.0000    -94.8700
  3872.5000     64.5806    312.6061     97.4280      4.4968      2.9372      4.9122      5.6523      5.7241      5.9590      5.2069      5.2344      5.2134      5.6717      0.0000    -94.8700
  3872.0000     59.3714    312.9483     97.5369      4.3472      2.8536      4.7541      5.4375      5.4441      5.7741      5.0350      5.0551      5.0918      5.4988      0.0000    -94.8700
  3871.5000     59.7453    312.1375     97.3738      4.6059      2.8834      4.9593      5.6490      5.7408      6.0934      5.5343      5.6305      5.5346      5.9781      0.0000    -94.8700
  3871.0000     65.2651    312.4844     97.6363      4.7984      3.0045      4.8159      5.5033      5.7172      6.0654      5.7797      5.7595      5.5633      5.9040      0.0000    -94.8700
  3870.5000     72.8018    312.8198     97.4230      4.8023      2.8643      4.9293      5.5557      5.5991      5.9894      5.6149      5.7012      5.4180      5.8787      0.0000    -94.8700
  3870.0000     81.8982    312.0845     97.3032      4.5145      2.7381      5.0505      5.3340      5.2791      5.5630      5.1179      5.4022      5.1745      5.8575      0.0000    -94.8700
  3869.5000     80.6369    311.7559     97.5757      4.4225      2.7442      4.9146      5.1203      4.8743      5.3530      5.1130      5.4306      5.1820      5.8657      0.0000    -94.8700
  3869.0000     68.0663    311.7064     97.4166      4.3786      2.8604      4.8589      5.2274      4.8205      5.3763      5.1961      5.5418      5.0380      5.6848      0.0000    -94.6200
  3868.5000     59.7751    311.6177     97.4898      4.3198      2.9555      4.8771      5.3305      4.9863      5.3688      5.0945      5.0804      4.8527      5.3294      0.0000    -94.6200
  3868.0000     65.8036    311.9286     97.3268      4.6466      2.7115      5.2514      5.5888      5.3393      5.4846      5.6187      5.3640      5.2106      5.8066      0.0000    -94.6200
  3867.5000     75.2168    312.4094     97.4932      5.0137      2.7357      5.8101      5.8013      5.7504      5.9472      6.4267      6.1030      6.1151      6.7244      0.0000    -94.6200
  3867.0000     77.1624    312.6947     97.2979      5.0018      2.6574      5.9736      6.0531      5.9704      6.2638      6.5304      6.5104      6.4402      6.9091      0.0000    -95.1200
  3866.5000     78.5970    313.1206     97.3910      4.9143      2.3735      5.8837      6.1928      5.8519      6.4101      6.3262      6.3297      6.3545      6.5924      0.0000    -95.1200
  3866.0000     82.1259    314.5797     97.4417      4.5663      2.4266      5.3564      5.4317      5.1396      5.7940      5.5265      5.5046      5.5791      6.0875      0.0000    -95.1200
  3865.5000     84.3763    314.6760     97.5922      4.4137      2.2526      5.1181      5.1886      5.0904      5.5072      4.8819      4.8624      5.0810      6.0076      0.0000    -94.8700
  3865.0000     77.4333    312.8300     97.3405      4.2855      2.2098      4.8359      5.2139      4.8842      4.9782      4.6038      4.6317      4.6209      5.5905      0.0000    -94.8700
