~Version Information
VERS.                      2.0: CWLS Log ASCII Standard - VERSION 2.0
WRAP.                       NO: One line per depth step
~Well Information Block
STRT.FT              8295.5000: START DEPTH
STOP.FT                 1.0000: STOP DEPTH
STEP.FT                -0.5000: STEP
NULL.                -999.2500: NULL VALUE
COMP.          Apex Energy LLC: COMPANY
WELL.            Fatur Pad 10H: WELL
FLD.                 Marcellus: FIELD
LOC.           Lat 40.426716--Long -79.54976: LOCATION
CNTY.              Westmorland: COUNTY
SRVC.          NINE ENERGY SERVICE: SERVICE COMPANY
DATE.          Wed Jun 06 13-47-35 2018: LOG DATE
UWI.           37-129-28930-00-01: UNIQUE WELL ID
STAT.                       Pa: STATE
~Curve Information Block
DEPT.FT            0 000 00 00: Depth
GR.GAPI                      0: Gamma Ray
TT3FT.USEC                   0: 3FT Travel Time
Temp.DEGF                    0: Integral Temperature
AMP3FT.MV                    0: AMP3FT Amplitude
AMP5FT.MV                    0: AMP5FT Amplitude
AMPS1.                       0: AMPS1 Amplitude
AMPS2.                       0: AMPS2 Amplitude
AMPS3.                       0: AMPS3 Amplitude
AMPS4.                       0: AMPS4 Amplitude
AMPS5.                       0: AMPS5 Amplitude
AMPS6.                       0: AMPS6 Amplitude
AMPS7.                       0: AMPS7 Amplitude
AMPS8.                       0: AMPS8 Amplitude
CCL.                         0: Casing Collar Locator
LSPD.FT/MIN                  0: Line Speed
~Parameter Information Block
~A  Depth        GR        TT3FT        Temp       AMP3FT      AMP5FT      AMPS1       AMPS2       AMPS3       AMPS4       AMPS5       AMPS6       AMPS7       AMPS8        CCL         LSPD    
# ...
  4431.5000     89.1793    307.4641    105.6677      8.4925      4.3257     12.2090     12.2834     11.7808     12.4893     12.2652     12.7468     12.4321     13.2373      0.0000    -90.2500
  4431.0000     90.1367    307.9675    105.6038      8.3414      4.4227     12.4873     12.1255     11.0188     11.5345     11.4687     12.4409     12.7128     13.6313      0.0000    -90.2500
  4430.5000     84.4788    308.4776    105.6546      7.9706      4.5655     12.9257     11.6807      9.5821      9.9806     10.1171     11.7567     13.0852     14.1810      0.0000    -90.2500
  4430.0000     78.5137    307.0651    105.6994      7.8955      4.7087     13.3129     11.5402      9.3713      9.7024     10.1499     11.5411     12.9826     14.6514      0.0000    -90.2500
  4429.5000     78.5967    293.8059    105.6328      8.7690      4.2442     15.0955     13.0488     11.3578     11.4938     12.0472     12.9721     14.1653     16.4534      0.0000    -90.2500
  4429.0000     92.4021    273.6392    105.4480      9.7981      4.2776     16.8239     15.0824     14.0130     14.1545     14.1700     14.8752     15.6442     17.9288      0.0000    -90.6200
  4428.5000    105.3362    267.3519    105.6103     10.1544      6.0290     17.1725     15.9591     15.4269     15.6924     15.1449     15.6221     16.0444     17.9953      0.0000    -90.6200
  4428.0000    103.1436    266.7007    105.3930     10.7875      8.5741     18.2255     17.5273     16.7068     16.6692     15.6908     16.3148     16.9095     18.8496      0.0000    -90.6200
  4427.5000     91.0740    265.5357    105.6102     12.6752      8.8907     21.4635     21.1160     19.7275     19.0141     18.1520     19.0993     20.1990     22.3729      0.0000    -90.3700
  4427.0000     75.8209    264.5490    105.6561     14.5390      8.5588     25.3370     24.6732     22.9018     21.5081     20.7566     22.0767     23.6294     26.3446      0.0000    -90.3700
  4426.5000     61.1586    264.2661    105.4691     14.7030      9.1429     26.5388     25.5014     23.4417     22.0251     20.8261     22.2737     23.5863     26.9352      0.0000    -90.3700
  4426.0000     64.5143    263.8693    105.7503     15.0662      9.5907     26.7004     26.2018     24.9313     24.3333     22.4882     23.4367     23.5958     26.4406      0.0000    -90.3700
  4425.5000     77.7178    263.3469    105.4284     16.4016      9.2318     27.4896     28.1518     28.3413     27.7109     25.5669     25.7235     25.2986     27.1707      0.0000    -90.3700
  4425.0000     81.4445    263.2180    105.5621     16.7159      9.0124     27.0427     28.4837     28.8817     27.9053     25.5746     25.2843     25.3677     27.1102      0.0000    -90.3700
  4424.5000     82.6439    263.5233    105.5416     15.3503      9.1789     25.5788     26.7320     25.6740     24.1724     22.3889     22.0461     22.9889     25.3314      0.0000    -90.3700
  4424.0000     81.8341    264.0783    105.5062     13.7764      9.4725     24.5062     25.0068     22.8181     20.6010     18.8602     18.7066     20.1997     23.4831      0.0000    -90.3700
  4423.5000     80.2066    264.3662    105.4889     12.7688      8.6374     23.7798     23.8818     21.2439     19.1295     16.9801     16.8090     18.1236     22.1158      0.0000    -90.3700
  4423.0000     87.1909    264.6685    105.4645     12.0057      8.0754     23.7034     23.7095     20.4693     18.2470     15.8761     15.5007     16.5338     21.1841      0.0000    -90.3700
  4422.5000     88.9188    264.9824    105.5268     11.4071      8.3880     22.7982     23.0856     19.8575     18.3708     16.4800     15.7191     15.9981     19.7076      0.0000    -90.3700
  4422.0000     83.6561    264.3008    105.2002     12.4342      8.5577     24.1292     24.5693     21.7375     21.1438     19.6716     18.9172     18.3228     21.1053      0.0000    -90.3700
  4421.5000     71.5240    263.2808    105.4262     14.3505      8.4709     26.7982     27.5160     25.2213     25.1019     23.5751     22.5680     21.5584     24.0123      0.0000    -90.6200
  4421.0000     59.2635    262.7981    105.4529     15.3562      9.1539     27.8304     29.0655     27.2690     27.4344     25.6239     24.3398     22.8443     25.1124      0.0000    -90.6200
  4420.5000     64.4846    262.8052    105.4909     15.2982      9.9250     27.4173     28.9352     27.1132     27.1930     25.3505     24.2822     22.8017     24.8507      0.0000    -90.6200
  4420.0000     71.0932    263.0063    105.5876     15.4097     10.6215     26.9804     28.6462     27.0560     26.7403     24.7783     23.5648     22.7097     24.8019      0.0000    -90.2500
  4419.5000     64.2933    263.2492    105.4156     15.7084     10.6295     27.4659     29.4937     28.2190     26.8820     24.5182     22.5130     21.8808     24.7533      0.0000    -90.2500
  4419.0000     63.0858    263.5935    105.3921     15.7508      9.8360     28.5799     31.4437     29.6600     26.9391     24.2845     22.1538     21.0445     24.3894      0.0000    -90.2500
  4418.5000     74.5985    263.5373    105.3955     15.5170      9.3317     28.0702     31.7501     29.3995     26.7526     24.4844     22.8144     21.3000     23.7569      0.0000    -90.5000
  4418.0000     84.4244    263.4115    105.3911     14.8280      9.6478     25.8248     29.3529     27.0326     25.7432     24.4902     23.6495     21.6590     22.7063      0.0000    -90.5000
  4417.5000     77.7938    263.2334    105.4481     14.7225     10.5854     24.7685     27.9875     26.2526     25.5557     24.4373     24.0712     21.8544     22.4070      0.0000    -90.5000
  4417.0000     63.6472    263.3844    105.2641     15.0638     11.5250     25.1088     28.1133     26.8785     26.1595     24.3615     23.3111     21.5721     22.7875      0.0000    -90.2500
  4416.5000     58.8031    263.4893    105.4553     16.0460     11.0680     27.2862     31.0656     29.9149     28.0817     25.1327     23.1152     21.6859     23.7803      0.0000    -90.2500
  4416.0000     61.3510    263.4862    105.4128     16.8176      9.9802     29.9423     35.4659     34.0098     29.9422     25.6806     23.0972     21.2903     24.0986      0.0000    -90.2500
  4415.5000     69.7429    263.4696    105.1850     15.9492     10.1752     28.8398     34.4390     32.6428     28.8681     25.1831     23.1436     20.8763     22.8130      0.0000    -90.3700
  4415.0000     86.1482    263.2603    105.3656     15.3478     10.8232     26.7942     30.8514     29.0252     27.2543     25.1993     24.1780     22.0879     22.7472      0.0000    -90.3700
  4414.5000     87.3764    263.0171    105.4056     16.0914     11.0702     26.9867     30.0609     28.3856     27.8633     26.6087     25.7271     23.7938     24.5366      0.0000    -90.3700
  4414.0000     69.1386    262.7748    105.1603     17.4392     10.8924     28.8735     31.8296     30.6038     30.5046     29.1121     27.3880     25.1374     26.4653      0.0000    -90.6200
  4413.5000     59.5376    262.5101    105.1568     18.6089     10.8093     31.2137     34.9995     34.4067     33.3932     31.1824     28.3789     25.6081     27.2334      0.0000    -90.6200
  4413.0000     62.1720    262.3259    105.4284     18.5680     11.3455     30.5631     35.4280     35.1116     33.5196     31.6884     28.8622     25.5221     26.4582      0.0000    -90.6200
  4412.5000     69.2253    262.3865    105.3687     17.9882     11.9363     28.4752     33.3598     33.0018     31.7338     31.1299     29.5525     26.2262     26.2151      0.0000    -90.3700
  4412.0000     78.5859    262.5407    105.2750     17.7824     11.7208     27.9045     32.1631     31.4835     30.5774     30.8299     30.2819     27.1064     26.9370      0.0000    -90.3700
  4411.5000     85.6394    262.5830    105.2444     18.1809     11.1274     28.7244     32.6107     31.7308     31.0652     31.3717     30.7559     27.7447     27.4850      0.0000    -90.3700
  4411.0000     89.0363    262.5050    105.3249     18.2180     11.1143     28.9583     33.0576     32.0967     31.0204     30.9339     30.1138     27.4305     27.1745      0.0000    -90.5000
