~Version Information
VERS.                      2.0: CWLS Log ASCII Standard - VERSION 2.0
WRAP.                       NO: One line per depth step
~Well Information Block
STRT.FT              8295.5000: START DEPTH
STOP.FT                 1.0000: STOP DEPTH
STEP.FT                -0.5000: STEP
NULL.                -999.2500: NULL VALUE
COMP.          Apex Energy LLC: COMPANY
WELL.            Fatur Pad 10H: WELL
FLD.                 Marcellus: FIELD
LOC.           Lat 40.426716--Long -79.54976: LOCATION
CNTY.              Westmorland: COUNTY
SRVC.          NINE ENERGY SERVICE: SERVICE COMPANY
DATE.          Wed Jun 06 13-47-35 2018: LOG DATE
UWI.           37-129-28930-00-01: UNIQUE WELL ID
STAT.                       Pa: STATE
~Curve Information Block
DEPT.FT            0 000 00 00: Depth
GR.GAPI                      0: Gamma Ray
TT3FT.USEC                   0: 3FT Travel Time
Temp.DEGF                    0: Integral Temperature
AMP3FT.MV                    0: AMP3FT Amplitude
AMP5FT.MV                    0: AMP5FT Amplitude
AMPS1.                       0: AMPS1 Amplitude
AMPS2.                       0: AMPS2 Amplitude
AMPS3.                       0: AMPS3 Amplitude
AMPS4.                       0: AMPS4 Amplitude
AMPS5.                       0: AMPS5 Amplitude
AMPS6.                       0: AMPS6 Amplitude
AMPS7.                       0: AMPS7 Amplitude
AMPS8.                       0: AMPS8 Amplitude
CCL.                         0: Casing Collar Locator
LSPD.FT/MIN                  0: Line Speed
~Parameter Information Block
~A  Depth        GR        TT3FT        Temp       AMP3FT      AMP5FT      AMPS1       AMPS2       AMPS3       AMPS4       AMPS5       AMPS6       AMPS7       AMPS8        CCL         LSPD    
# ...
  2226.5000     42.5860    263.6785     75.0483     31.1522     23.9274     48.5131     48.9904     50.8788     49.6523     48.4981     49.4449     51.7803     52.3760      0.0000    -99.6200
  2226.0000     52.3994    263.9984     74.9725     31.3213     23.2640     49.0050     49.5843     50.9252     49.6078     48.5573     49.4384     51.6575     52.6269      0.0000    -99.6200
  2225.5000     57.3194    265.9428     74.9772     30.5194     21.0019     48.1121     48.8090     50.1001     47.8272     46.7031     47.4802     50.3169     51.3568      0.0000    -99.6200
  2225.0000     63.9592    268.1727     74.9456     28.7289     20.8923     45.9607     46.8527     47.6397     44.5500     43.4030     44.2183     47.1931     48.5273      0.0000    -99.6200
  2224.5000     65.3224    268.3156     74.8984     25.9058     21.1315     41.5607     42.8118     43.0295     40.0502     38.5972     39.2180     41.8667     43.3498      0.0000    -99.6200
  2224.0000     61.0787    267.8228     74.9011     25.8966     21.2934     41.7844     43.5775     43.6251     40.8299     38.7130     38.7580     41.0470     42.6830      0.0000    -99.6200
  2223.5000     57.3460    267.6150     74.8876     25.6489     20.5820     41.4348     44.0217     44.1003     42.0357     39.2663     38.7075     39.5850     40.8674      0.0000    -99.6200
  2223.0000     47.1245    267.7762     74.8777     24.4409     18.0898     37.7555     41.6666     42.7812     41.6312     38.8342     37.7754     36.7224     36.8376      0.0000    -99.3700
  2222.5000     42.5139    267.6429     75.0310     25.4772     15.9999     36.6293     41.1018     44.1851     44.2893     41.9930     41.0190     38.8519     37.1315      0.0000    -99.3700
  2222.0000     45.3135    265.3579     74.9745     27.9753     15.2324     39.5335     43.9417     47.7573     48.1752     46.2091     45.6524     43.4412     40.7983      0.0000    -99.3700
  2221.5000     46.0854    264.1211     74.9039     27.5324     16.3101     38.3362     42.2750     46.2136     47.2467     45.6875     45.0332     43.0954     40.2893      0.0000    -99.3700
  2221.0000     47.4049    264.1614     75.0790     26.9151     19.2830     37.2562     40.8862     44.9236     46.0811     44.4553     43.6509     42.1357     39.4152      0.0000    -99.3700
  2220.5000     47.9446    264.1798     74.9212     26.4038     20.8231     36.0033     39.4726     43.8081     44.7416     43.4109     42.7612     41.4156     38.4666      0.0000    -99.3700
  2220.0000     47.7264    264.2421     75.0828     26.1699     21.5052     35.3338     38.5221     43.1530     44.3341     43.1572     42.7729     41.3385     38.1672      0.0000    -99.3700
  2219.5000     47.5734    264.2929     74.9983     26.3437     21.8429     36.0470     39.0791     43.4065     44.6728     43.3190     43.2469     41.8930     38.7893      0.0000    -99.3700
  2219.0000     44.3263    264.2601     74.9129     26.7372     21.8915     37.1585     40.1759     43.9957     45.1401     43.7007     43.8131     42.4916     39.5810      0.0000    -99.3700
  2218.5000     47.7960    264.2146     74.7471     27.2392     21.5525     38.2668     41.2174     44.7876     45.7899     44.3352     44.4905     42.9556     40.4186      0.0000    -99.3700
  2218.0000     54.7328    264.2458     74.8569     27.5331     21.5194     38.6313     41.7215     45.8001     46.5942     45.1834     45.0289     43.5256     40.9717      0.0000    -99.5000
  2217.5000     47.2367    264.2216     74.9601     27.7640     22.3153     38.6037     42.0383     46.5779     47.5437     46.0007     45.4757     44.1347     41.4028      0.0000    -99.5000
  2217.0000     36.9694    264.0414     74.7796     28.1448     22.7483     38.7315     42.2085     46.6945     47.6944     46.4827     45.9804     44.7091     41.8988      0.0000    -99.5000
  2216.5000     40.0913    263.9291     74.6330     28.3095     22.8874     39.1120     42.6376     46.8699     47.4689     46.4987     46.2017     45.2947     42.2028      0.0000   -100.0000
  2216.0000     42.9437    264.0277     74.9536     28.2286     23.2576     39.2430     42.8429     47.0737     47.4361     46.4831     46.1763     45.2807     42.1293      0.0000   -100.0000
  2215.5000     41.7082    264.0253     74.7606     28.3474     23.6296     39.5601     43.2166     47.2812     47.6340     46.4901     46.4410     45.2949     42.3466      0.0000   -100.0000
  2215.0000     53.4139    263.9953     74.8723     28.5666     23.7039     40.0030     43.5730     47.3160     48.0385     46.5839     46.6990     45.5745     42.5672      0.0000   -100.0000
  2214.5000     71.8465    263.9485     74.7596     28.5801     23.4530     39.9666     43.3369     46.7867     47.9609     46.5025     46.9406     45.8906     42.6204      0.0000    -99.7500
  2214.0000     70.7565    263.9199     74.7850     28.7004     23.6980     40.2659     43.3065     46.6519     47.7811     46.4114     47.0783     46.2821     43.0949      0.0000    -99.7500
  2213.5000     52.4446    263.8176     74.8724     28.9871     23.9369     41.0958     43.7058     47.1005     48.0195     47.0259     47.2784     46.7364     43.9528      0.0000    -99.7500
  2213.0000     44.6992    263.8214     74.8270     29.2679     23.9660     41.8101     44.2355     47.5204     48.4335     47.4083     47.6872     47.0855     44.5229      0.0000    -99.7500
  2212.5000     54.5585    263.8628     74.7255     29.5120     24.0343     42.2436     44.7546     48.2291     48.9875     47.7189     48.1878     47.6689     44.9481      0.0000    -99.7500
  2212.0000     61.2415    263.7784     74.5375     29.7695     23.9532     42.4771     45.1286     48.4920     49.3722     48.2334     48.6614     48.3491     45.4303      0.0000    -99.7500
  2211.5000     51.4361    263.6996     74.9373     29.8000     23.5914     42.5728     45.0707     48.2299     48.9693     48.2769     48.6975     48.5035     45.6573      0.0000    -99.6200
  2211.0000     42.8074    263.6819     74.6809     29.6536     23.0946     42.3521     44.7334     48.1548     48.8182     48.2146     48.7009     48.2846     45.6068      0.0000    -99.6200
  2210.5000     43.8390    263.7486     74.7390     29.1571     22.7091     41.7653     44.2085     47.6122     48.3107     47.7773     48.1214     47.6823     44.9390      0.0000    -99.6200
  2210.0000     51.7562    263.7865     74.7084     28.6945     22.3610     40.8869     43.5754     47.0101     47.7292     47.0237     47.2527     46.7627     43.8928      0.0000    -99.6200
  2209.5000     61.0915    263.7578     74.5996     28.5780     22.1322     39.9291     42.5928     46.1397     47.5776     46.7566     47.0043     46.2745     42.9286      0.0000    -99.3700
  2209.0000     66.6813    263.8503     74.7335     28.2349     22.2552     39.1508     41.5077     45.1925     47.1027     46.4357     46.9163     45.8814     42.1467      0.0000    -99.3700
  2208.5000     64.6987    263.9491     74.9131     27.8369     22.3768     38.5014     40.7386     44.5209     46.4470     45.6742     46.2927     45.2597     41.6649      0.0000    -99.3700
  2208.0000     54.6698    263.9620     74.6374     27.6915     22.3878     38.3947     40.7816     44.4255     46.2820     45.1217     45.8074     45.1045     41.5813      0.0000    -99.6200
  2207.5000     50.6420    263.9110     74.5862     27.9480     22.1732     38.9151     41.5749     45.2645     46.5655     45.3043     45.6968     45.2828     41.9226      0.0000    -99.6200
  2207.0000     50.8201    263.8332     74.5809     28.3585     21.8844     39.5961     42.4097     46.1518     47.0678     45.8754     46.0913     45.4943     42.5751      0.0000    -99.6200
  2206.5000     51.9155    263.7126     74.9273     28.6842     21.7868     40.3024     43.0161     46.9145     47.8238     46.3522     46.5398     46.1284     43.1221      0.0000    -99.5000
  2206.0000     58.7698    263.6792     74.5538     28.7870     21.9126     40.5188     43.3136     47.6971     48.4412     46.7073     46.5480     46.1944     43.2918      0.0000    -99.5000
