~Version Information
VERS.                      2.0: CWLS Log ASCII Standard - VERSION 2.0
WRAP.                       NO: One line per depth step
~Well Information Block
STRT.FT              8295.5000: START DEPTH
STOP.FT                 1.0000: STOP DEPTH
STEP.FT                -0.5000: STEP
NULL.                -999.2500: NULL VALUE
COMP.          Apex Energy LLC: COMPANY
WELL.            Fatur Pad 10H: WELL
FLD.                 Marcellus: FIELD
LOC.           Lat 40.426716--Long -79.54976: LOCATION
CNTY.              Westmorland: COUNTY
SRVC.          NINE ENERGY SERVICE: SERVICE COMPANY
DATE.          Wed Jun 06 13-47-35 2018: LOG DATE
UWI.           37-129-28930-00-01: UNIQUE WELL ID
STAT.                       Pa: STATE
~Curve Information Block
DEPT.FT            0 000 00 00: Depth
GR.GAPI                      0: Gamma Ray
TT3FT.USEC                   0: 3FT Travel Time
Temp.DEGF                    0: Integral Temperature
AMP3FT.MV                    0: AMP3FT Amplitude
AMP5FT.MV                    0: AMP5FT Amplitude
AMPS1.                       0: AMPS1 Amplitude
AMPS2.                       0: AMPS2 Amplitude
AMPS3.                       0: AMPS3 Amplitude
AMPS4.                       0: AMPS4 Amplitude
AMPS5.                       0: AMPS5 Amplitude
AMPS6.                       0: AMPS6 Amplitude
AMPS7.                       0: AMPS7 Amplitude
AMPS8.                       0: AMPS8 Amplitude
CCL.                         0: Casing Collar Locator
LSPD.FT/MIN                  0: Line Speed
~Parameter Information Block
~A  Depth        GR        TT3FT        Temp       AMP3FT      AMP5FT      AMPS1       AMPS2       AMPS3       AMPS4       AMPS5       AMPS6       AMPS7       AMPS8        CCL         LSPD    
# ...
    21.5000      4.4707   1406.0000     54.5714      2.1101      1.1300      0.0964      0.8527      0.2932      0.7738      0.5947      0.8314      0.8073      0.3683      1.7200    -31.2500
    21.0000      4.3056   1406.0000     54.4819      2.1885      1.1393      0.0907      0.7018      0.2079      0.7559      0.5581      1.1465      0.6332      0.4185      0.0000    -42.6200
    20.5000      4.3624   1406.0000     54.5979      2.2090      1.1969      0.1230      0.7093      0.0456      0.6366      0.6127      0.7678      0.4319      0.3804      0.0000    -49.0000
    20.0000      3.6629   1406.0000     54.5273      2.1184      1.2467      0.1980      0.7858      0.0516      0.5876      0.6654      0.5568      0.4350      0.3726      3.0000    -49.0000
    19.5000      3.5914   1406.0000     54.5191      2.1048      1.2746      0.1334      0.7259      0.2088      0.6181      0.5134      0.4765      0.4925      0.4003      3.0000    -50.6200
    19.0000      3.1547   1406.0000     54.3558      2.1157      1.1630      0.0919      0.6230      0.2671      0.4542      0.2663      0.3813      0.5220      0.4942     -1.9434    -50.6200
    18.5000      2.0890   1406.0000     54.5463      2.0644      1.0346      0.1603      0.4926      0.2678      0.3629      0.3617      0.2706      0.5528      0.5939      0.0000    -50.0000
    18.0000      1.2013   1406.0000     54.5344      2.0478      1.0726      0.1481      0.5540      0.2217      0.5243      0.3923      0.3613      0.6163      0.6837      0.0000    -49.8700
    17.5000      0.8623   1406.0000     54.3420      2.0090      1.2442      0.1900      0.7010      0.1653      0.5610      0.3034      0.5428      0.4800      0.7265      0.0000    -49.8700
    17.0000      1.7999   1406.0000     54.6250      2.0358      1.4464      0.4152      0.8240      0.1332      0.5340      0.1725      0.7433      0.4905      0.8386     -2.2983    -49.2500
    16.5000      2.9538   1406.0000     54.4647      2.0509      1.3840      0.3887      0.7135      0.1614      0.3743      0.2405      0.6188      0.4771      0.6803      0.0000    -49.2500
    16.0000      3.5485   1406.0000     54.5418      2.0024      1.2647      0.2998      0.6352      0.2699      0.3127      0.4104      0.5373      0.5286      0.6107      0.0000    -49.1200
    15.5000      4.0992   1406.0000     54.6051      1.9874      1.3645      0.3031      0.6715      0.3027      0.3118      0.4321      0.6905      0.6516      0.5527      0.0000    -49.2500
    15.0000      4.1060   1406.0000     54.4773      2.0971      1.4273      0.3113      0.6668      0.3355      0.3641      0.4006      0.8196      0.6490      0.5487      0.0000    -49.2500
    14.5000      3.0575   1406.0000     54.6605      2.2162      1.3620      0.2486      0.5675      0.3033      0.3355      0.3897      0.8487      0.6902      0.6711      0.0000    -48.8700
    14.0000      1.6666   1406.0000     54.6026      2.2710      1.3345      0.1749      0.5003      0.2589      0.3062      0.3282      0.7255      1.0068      0.5791     -2.5017    -48.7500
    13.5000      1.2892   1406.0000     54.4980      2.2149      1.4888      0.2235      0.5284      0.3023      0.2839      0.3600      0.7580      1.0291      0.5085      0.0000    -48.7500
    13.0000      1.7894   1406.0000     54.6026      2.2134      1.3768      0.3265      0.6270      0.2808      0.3916      0.4121      0.8158      0.7006      0.6748      0.0000    -48.7500
    12.5000      2.2482   1406.0000     54.5519      2.0894      1.3294      0.2941      0.7181      0.3257      0.4484      0.6069      0.5710      0.4394      0.6427      0.0000    -48.7500
    12.0000      1.4552   1406.0000     54.5119      1.9759      1.5064      0.2211      0.7651      0.1883      0.4935      0.5954      0.4692      0.4797      0.5010     -3.0000    -48.5000
    11.5000      1.0778   1406.0000     54.4992      1.9000      1.3667      0.1527      0.7292     -0.0204      0.7716      0.3121      0.6165      0.4613      0.4868      0.0000    -48.8700
    11.0000      1.7453   1406.0000     54.6431      1.8491      1.3383      0.1624      0.6517      0.0374      0.8595      0.2491      0.6254      0.5849      0.4463      0.0000    -48.8700
    10.5000      1.8798   1406.0000     54.5052      1.9103      1.1804      0.2914      0.6210      0.2225      0.5524      0.4553      0.7379      0.6762      0.4010      0.0000    -48.7500
    10.0000      1.7692   1406.0000     54.6224      1.9743      1.0740      0.3880      0.6259      0.2496      0.4261      0.4930      1.0155      0.7340      0.3985      0.0000    -48.7500
     9.5000      2.8563   1406.0000     54.6886      1.9532      1.1395      0.3667      0.5901      0.1788      0.6069      0.3389      0.7447      0.6493      0.5028      0.0000    -48.7500
     9.0000      3.7477   1406.0000     54.6567      1.9624      1.2007      0.2224      0.6753      0.3914      0.5810      0.3248      0.4682      0.5104      0.5199      0.0000    -48.7500
     8.5000      2.6617   1406.0000     54.6206      1.9610      1.3224      0.0667      0.7771      0.5226      0.4751      0.3665      0.5451      0.4822      0.5752     -3.0000    -48.7500
     8.0000      1.9361   1406.0000     54.4647      1.9375      1.5198      0.3195      0.7542      0.4777      0.4402      0.3973      0.5765      0.6249      0.5132     -3.0000    -48.7500
     7.5000      2.2103   1406.0000     54.5372      1.8860      1.5541      0.5163      0.6817      0.5743      0.4317      0.4584      0.6654      0.5485      0.4327     -3.0000    -48.7500
     7.0000      1.4399   1406.0000     54.5924      1.9767      1.5806      0.2411      0.6217      0.4944      0.4870      0.4696      0.6532      0.6014      0.4265      0.0000    -49.0000
     6.5000      0.9800   1406.0000     54.5226      2.0383      1.6240      0.2625      0.7894      0.1905      0.5253      0.6610      0.5213      0.7122      0.2927      0.0000    -48.8700
     6.0000      1.4352   1406.0000     54.5880      2.1074      1.2331      0.4868      0.9260      0.1958      0.2920      0.7571      0.3945      0.7149      0.2104      2.5413    -48.8700
     5.5000      1.6316   1406.0000     54.7167      2.0684      1.0916      0.3955      0.8710      0.4125      0.1601      0.5793      0.3845      0.6786      0.3818      3.0000    -48.5000
     5.0000      1.4313   1406.0000     54.6466      2.0124      1.1391      0.2222      0.8391      0.4231      0.2741      0.4980      0.4256      0.5584      0.5764      0.0000    -47.7500
     4.5000      1.3664   1406.0000     54.6774      2.0233      1.0983      0.2496      0.8099      0.3079      0.3210      0.6162      0.4175      0.4661      0.4570     -1.5874    -47.7500
     4.0000      1.6193   1406.0000     54.4782      1.9368      0.9469      0.3685      0.6167      0.2613      0.2767      0.6567      0.5893      0.4216      0.3862     -2.8918    -47.3700
     3.5000      2.5794   1406.0000     54.6312      1.9084      0.9652      0.4651      0.6299      0.2552      0.1823      0.5012      0.8808      0.2668      0.4988      0.0000    -46.8700
     3.0000      3.1601   1406.0000     54.5660      1.9070      1.0396      0.4172      0.7814      0.1999      0.2272      0.3611      0.7766      0.1200      0.5943      0.0000    -46.8700
     2.5000      1.9861   1406.0000     54.4327      1.9552      1.0133      0.4181      0.5782      0.1813      0.2647      0.2510      0.6042      0.2416      0.6245      0.0000    -45.8700
     2.0000      1.3323   1406.0000     54.4789      1.9064      1.1455      0.5170      0.5378      0.0863      0.3301      0.1970      0.5928      0.3258      0.5994     -3.0000    -45.1200
     1.5000      1.5193   1406.0000     54.6973      1.9195      1.2784      0.4567      0.6705     -0.0551      0.4100      0.2019      0.7370      0.4390      0.4976     -3.0000    -45.1200
     1.0000      2.5029   1406.0000     54.5553      1.9570      1.2972      0.3759      0.6564     -0.1518      0.4915      0.3516      0.6628      0.6153      0.4301     -3.0000    -44.2500
