~Version Information
VERS.                      2.0: CWLS Log ASCII Standard - VERSION 2.0
WRAP.                       NO: One line per depth step
~Well Information Block
STRT.FT              8295.5000: START DEPTH
STOP.FT                 1.0000: STOP DEPTH
STEP.FT                -0.5000: STEP
NULL.                -999.2500: NULL VALUE
COMP.          Apex Energy LLC: COMPANY
WELL.            Fatur Pad 10H: WELL
FLD.                 Marcellus: FIELD
LOC.           Lat 40.426716--Long -79.54976: LOCATION
CNTY.              Westmorland: COUNTY
SRVC.          NINE ENERGY SERVICE: SERVICE COMPANY
DATE.          Wed Jun 06 13-47-35 2018: LOG DATE
UWI.           37-129-28930-00-01: UNIQUE WELL ID
STAT.                       Pa: STATE
~Curve Information Block
DEPT.FT            0 000 00 00: Depth
GR.GAPI                      0: Gamma Ray
TT3FT.USEC                   0: 3FT Travel Time
Temp.DEGF                    0: Integral Temperature
AMP3FT.MV                    0: AMP3FT Amplitude
AMP5FT.MV                    0: AMP5FT Amplitude
AMPS1.                       0: AMPS1 Amplitude
AMPS2.                       0: AMPS2 Amplitude
AMPS3.                       0: AMPS3 Amplitude
AMPS4.                       0: AMPS4 Amplitude
AMPS5.                       0: AMPS5 Amplitude
AMPS6.                       0: AMPS6 Amplitude
AMPS7.                       0: AMPS7 Amplitude
AMPS8.                       0: AMPS8 Amplitude
CCL.                         0: Casing Collar Locator
LSPD.FT/MIN                  0: Line Speed
~Parameter Information Block
~A  Depth        GR        TT3FT        Temp       AMP3FT      AMP5FT      AMPS1       AMPS2       AMPS3       AMPS4       AMPS5       AMPS6       AMPS7       AMPS8        CCL         LSPD    
# ...
  7182.5000     76.6564    450.9817    149.8132      2.5269      1.4702      1.2699      1.6385      0.3761      1.1919      0.7114      0.8070      0.9346      2.1735      0.0000    -72.5000
  7182.0000     69.3300    449.8685    149.7299      2.3687      1.2635      1.3970      1.7406      0.0259      0.5073      0.1371      0.0695      0.3164      1.8751      0.0000    -72.5000
  7181.5000     66.3434    459.2878    150.0614      2.6673      1.3662      1.4117      1.7040      0.4799      0.9198      0.6235      0.5623      0.1754      1.7587      0.0000    -72.5000
  7181.0000     69.7738    462.3185    149.5945      2.9353      1.5659      1.0726      1.6501      0.8266      1.5739      0.9343      0.9298     -0.1053      1.5614      0.0000    -72.5000
  7180.5000     75.8248    434.7313    149.7251      3.0509      1.5844      1.4964      1.8320      1.2469      1.6890      1.1327      1.2853     -0.0874      1.6847      0.0000    -72.2500
  7180.0000     78.4861    451.2870    149.3153      2.7162      1.4271      2.1824      1.9527      0.9257      1.2239      0.7766      0.8056     -0.1386      1.8514      0.0000    -72.2500
  7179.5000     78.9998    464.0154    149.6163      2.4629      1.4275      2.4516      2.3869      0.6097      1.0381      0.7182      0.6566      0.0558      2.1288      0.0000    -72.2500
  7179.0000     80.6906    441.8183    149.6917      2.5343      1.4456      1.9117      2.3727      0.9396      1.3321      0.9236      0.7416     -0.1865      1.6381      0.0000    -72.2500
  7178.5000     86.0095    427.8159    149.6185      2.4609      1.1197      1.7617      2.1021      0.6822      0.9775      0.6688      0.5544     -0.2067      1.6211      0.0000    -72.2500
  7178.0000     83.4593    442.1556    149.7352      2.4314      1.0562      1.7604      2.0251      0.0961     -0.0028      0.0114      0.2003     -0.2078      2.0366      0.0000    -72.3700
  7177.5000     69.9136    441.5948    149.7947      2.2832      1.4241      1.2491      1.2982     -0.1712      0.1789      0.2276      0.3209     -0.2277      1.8526      0.0000    -72.3700
  7177.0000     65.6539    433.7202    149.7534      2.4809      1.8294      1.5835      1.3828      0.5645      0.9180      0.7445      1.0759      0.5332      2.1836      0.0000    -72.3700
  7176.5000     73.4992    440.2944    149.4963      3.1852      1.7716      2.1887      2.3818      1.7442      2.2505      2.0453      2.0479      1.5297      3.0084      0.0000    -72.3700
  7176.0000     72.4763    434.9427    149.9386      3.1921      1.8892      2.2586      2.5942      2.0395      2.5668      2.5567      2.4232      2.4950      3.5456      0.0000    -72.3700
  7175.5000     68.7700    443.2422    149.5196      2.4813      1.6965      1.7980      2.1552      1.8474      1.8014      1.1618      1.2398      1.0886      2.7974      0.0000    -72.5000
  7175.0000     77.9511    432.7045    149.4406      2.3749      1.7588      1.4690      1.5508      0.9862      1.5456      0.8867      1.0651      0.0350      1.9201      0.0000    -72.5000
  7174.5000     84.8962    424.6042    149.5576      2.5495      1.4119      1.6937      1.7971      1.0924      1.9021      1.4133      1.1808      0.1376      1.8082      0.0000    -72.3700
  7174.0000     76.6282    447.6855    149.4577      2.7510      1.2326      2.2378      2.4470      1.7536      2.1431      1.7841      1.1505      0.9554      2.8483      0.0000    -72.3700
  7173.5000     72.2077    484.2479    149.4510      2.8518      1.4783      2.1055      2.3185      1.3037      1.8569      1.6317      1.0076      0.6605      2.8358      0.0000    -72.2500
  7173.0000     80.6920    491.5939    149.5415      2.8317      1.7007      1.3277      1.4805      0.6559      1.5419      1.9604      1.3530      0.0117      1.8096      0.0000    -72.2500
  7172.5000     87.6680    449.6990    149.3932      2.5134      1.7693      0.6209      0.9006      0.3213      0.9731      1.0761      1.1109     -0.2962      1.3265      0.0000    -72.2500
  7172.0000     88.2819    418.3812    149.5104      2.2784      1.6221      0.2928      0.3543     -0.2186      0.6461      0.4695      0.4654     -0.6570      1.3209      0.0000    -72.6200
  7171.5000     85.3531    439.0746    149.6194      2.6000      1.4915      0.7127      1.0361      0.2907      1.0301      0.6032      0.6197     -0.4999      1.4518      0.0000    -72.6200
  7171.0000     81.5402    442.5505    149.6339      2.6066      1.6156      1.4195      1.5338      0.4969      1.0288      0.2823      0.4018     -0.7709      1.5709      0.0000    -72.6200
  7170.5000     75.9140    437.8384    149.2102      3.0928      1.4020      2.1402      2.0524      0.9368      1.9390      1.3136      1.1197     -0.1436      2.3059      0.0000    -72.6200
  7170.0000     74.7485    457.3971    149.6163      3.0614      1.4486      2.0158      2.0840      1.2705      2.0097      1.2187      1.5429      0.4111      2.6841      0.0000    -72.6200
  7169.5000     77.0834    433.7990    149.6036      2.7906      1.4859      2.0124      2.2416      1.5517      1.5043      0.2250      1.1002      0.6497      3.0136      0.0000    -72.6200
  7169.0000     69.3843    433.5946    149.0605      2.8219      1.3340      1.7944      1.8090      1.7258      2.1207      0.4997      1.4463      0.6860      2.9306      0.0000    -72.6200
  7168.5000     66.9333    436.0865    149.4422      2.6380      1.2919      1.1438      0.3909      0.8156      1.6581      0.7832      1.3225      0.3840      2.3647      0.0000    -72.5000
  7168.0000     73.9216    464.5603    149.4176      2.4150      1.1739      1.5619      0.6643      0.2508      0.6897      0.1133      0.4812      0.1572      2.7153      0.0000    -72.5000
  7167.5000     77.2253    475.2650    149.4140      2.5223      1.1109      2.1770      1.6370      0.5528      0.8102      0.0896      0.5584      0.8006      3.0608      0.0000    -72.2500
  7167.0000     80.1587    434.4514    149.7043      3.0682      1.1189      2.0515      2.2872      1.2348      1.9605      1.2019      1.6720      1.4512      3.0097      0.0000    -72.2500
  7166.5000     82.8682    395.7859    149.4725      2.9203      1.4063      1.9768      2.0481      1.1096      2.0755      0.9344      1.7952      0.7240      2.5812      0.0000    -72.2500
  7166.0000     81.7362    369.7407    149.6491      2.1691      1.6529      2.1381      1.1720      0.2304      0.7931      0.1119      1.2676      0.0933      1.9985      0.0000    -72.1200
  7165.5000     79.5644    381.4708    149.3554      2.0648      1.4537      2.0224      0.9640     -0.2836     -0.0734      0.3962      0.8425      0.3530      2.0491      0.0000    -72.1200
  7165.0000     75.5519    443.2203    149.4297      2.9749      1.3695      2.6333      2.4635      1.0202      1.2488      1.5517      1.7550      1.3779      2.8588      0.0000    -72.3700
  7164.5000     76.1013    485.1930    149.6446      2.8876      1.4819      2.4380      2.4752      1.4853      1.7274      1.5181      1.4572      1.0762      2.8095      0.0000    -72.3700
  7164.0000     81.0661    485.0260    149.0866      2.3456      1.2644      2.3069      2.1965      1.4436      1.6833      1.2720      0.4494      0.2430      2.2958      0.0000    -72.3700
  7163.5000     81.8980    472.0262    149.1749      2.6554      1.4310      2.8263      2.7755      1.6131      2.1237      1.6647      0.8993      0.4196      2.3310      0.0000    -72.5000
  7163.0000     72.7810    460.8231    149.4214      3.2382      1.3236      2.9776      3.1858      2.3233      2.9526      2.2935      2.0586      1.2562      3.0614      0.0000    -72.5000
  7162.5000     58.7196    475.7898    149.3164      3.1855      1.2933      2.1577      2.4994      2.2742      2.8928      2.4023      2.2315      1.1461      2.7835      0.0000    -72.2500
  7162.0000     52.0184    513.7407    149.3734      3.0492      1.5035      2.0338      2.0923      1.7404      2.4475      2.1629      2.1150      0.8744      2.4674      0.0000    -72.2500
