~Version Information
VERS.                      2.0: CWLS Log ASCII Standard - VERSION 2.0
WRAP.                       NO: One line per depth step
~Well Information Block
STRT.FT              8295.5000: START DEPTH
STOP.FT                 1.0000: STOP DEPTH
STEP.FT                -0.5000: STEP
NULL.                -999.2500: NULL VALUE
COMP.          Apex Energy LLC: COMPANY
WELL.            Fatur Pad 10H: WELL
FLD.                 Marcellus: FIELD
LOC.           Lat 40.426716--Long -79.54976: LOCATION
CNTY.              Westmorland: COUNTY
SRVC.          NINE ENERGY SERVICE: SERVICE COMPANY
DATE.          Wed Jun 06 13-47-35 2018: LOG DATE
UWI.           37-129-28930-00-01: UNIQUE WELL ID
STAT.                       Pa: STATE
~Curve Information Block
DEPT.FT            0 000 00 00: Depth
GR.GAPI                      0: Gamma Ray
TT3FT.USEC                   0: 3FT Travel Time
Temp.DEGF                    0: Integral Temperature
AMP3FT.MV                    0: AMP3FT Amplitude
AMP5FT.MV                    0: AMP5FT Amplitude
AMPS1.                       0: AMPS1 Amplitude
AMPS2.                       0: AMPS2 Amplitude
AMPS3.                       0: AMPS3 Amplitude
AMPS4.                       0: AMPS4 Amplitude
AMPS5.                       0: AMPS5 Amplitude
AMPS6.                       0: AMPS6 Amplitude
AMPS7.                       0: AMPS7 Amplitude
AMPS8.                       0: AMPS8 Amplitude
CCL.                         0: Casing Collar Locator
LSPD.FT/MIN                  0: Line Speed
~Parameter Information Block
~A  Depth        GR        TT3FT        Temp       AMP3FT      AMP5FT      AMPS1       AMPS2       AMPS3       AMPS4       AMPS5       AMPS6       AMPS7       AMPS8        CCL         LSPD    
# ...
  5544.5000     68.2608    362.1023    121.9882      3.3461      2.6474      3.6693      4.0786      3.2953      3.4807      2.7563      3.4578      2.7091      4.1284      0.0000    -86.1200
  5544.0000     66.5655    348.6433    122.1601      3.4339      2.3598      3.5795      4.4768      3.3835      3.9010      3.0582      3.6043      2.8319      4.1014      0.0000    -86.1200
  5543.5000     64.6163    329.2503    122.3928      3.3299      2.0487      3.5880      4.4388      3.4117      3.7462      3.2504      3.5143      2.9777      4.1257      0.0000    -85.8700
  5543.0000     64.1821    316.3764    122.0781      3.5102      2.2663      3.5985      4.5841      3.6542      3.8650      3.4495      3.7101      3.2459      4.2953      0.0000    -85.8700
  5542.5000     65.7355    313.2338    122.3902      3.6616      2.3285      3.7263      4.6398      3.7833      4.0641      3.7562      4.0591      3.5035      4.7601      0.0000    -85.8700
  5542.0000     66.6836    315.3990    122.2307      3.7270      2.5463      4.1995      4.7895      4.0698      4.2677      4.0528      4.1879      3.6544      5.0014      0.0000    -85.8700
  5541.5000     69.4952    327.4473    122.1871      3.7388      2.3847      4.3083      4.7639      4.0979      4.2696      3.8552      4.0849      3.5231      4.8847      0.0000    -85.8700
  5541.0000     70.5173    327.3249    122.1871      3.8290      2.2329      4.2773      4.7535      3.9333      4.3146      3.7502      3.8490      3.6151      4.8202      0.0000    -86.1200
  5540.5000     69.8787    316.3956    122.1735      3.7577      2.1748      4.0066      4.6273      3.7102      4.3331      3.7275      3.4236      3.5551      4.3403      0.0000    -86.1200
  5540.0000     71.3024    314.4312    122.0572      3.7273      1.9525      3.9027      4.2724      3.7360      4.4513      4.0008      3.6021      3.7079      4.2652      0.0000    -86.1200
  5539.5000     77.1528    312.7290    122.2479      4.0513      2.1511      4.5478      4.8383      4.7504      5.2463      5.0223      4.5082      4.3881      5.0386      0.0000    -86.0000
  5539.0000     86.3719    311.4309    122.3178      4.5741      2.5835      5.2876      5.7439      5.5989      5.9860      5.9341      5.3449      5.1319      5.9289      0.0000    -86.0000
  5538.5000     90.6377    311.7532    122.3891      4.9206      2.6094      5.7666      6.1032      5.9313      6.1239      5.9463      5.6312      5.4682      6.4901      0.0000    -86.0000
  5538.0000     91.0431    312.1325    122.2288      5.3688      2.4587      6.5788      6.8436      6.6974      6.6263      6.2134      6.2105      6.2159      7.4209      0.0000    -85.8700
  5537.5000     87.2615    311.6362    122.2507      5.9450      2.2433      7.5563      7.8429      7.7399      7.5579      6.8747      6.8989      6.9542      8.2521      0.0000    -85.8700
  5537.0000     80.9205    311.8452    122.2069      6.3709      2.3130      8.2116      8.7203      8.6753      8.4367      7.6992      7.3861      7.5718      8.7854      0.0000    -85.8700
  5536.5000     73.2218    311.7937    122.1628      6.5644      2.3583      8.3426      9.1461      9.0190      8.7792      7.8572      7.4668      7.7318      8.9665      0.0000    -85.8700
  5536.0000     63.8227    311.8028    122.1316      6.7350      2.2441      8.5470      9.2332      9.0731      8.4845      7.8524      7.8146      8.0881      9.4010      0.0000    -85.8700
  5535.5000     64.7618    312.5740    122.0878      7.2370      2.0177      9.5498      9.8906      9.3936      9.1634      9.2454      9.8837      9.8898     10.9077      0.0000    -85.8700
  5535.0000     70.7303    312.9753    122.1431      7.1263      1.8801      9.7023      9.9165      9.0663      9.4232      9.5772     10.5333     10.2462     11.2252      0.0000    -85.2500
  5534.5000     67.0357    313.6630    122.0518      6.9007      2.1622      9.6392      9.8141      8.8865      9.0889      8.8757     10.0274     10.2306     11.0199      0.0000    -85.2500
  5534.0000     60.8997    315.2377    122.1053      6.5305      2.6483      9.2270      9.5467      8.7018      8.4858      7.9327      9.1965      9.7834     10.4432     -1.5674    -85.2500
  5533.5000     66.5746    316.1766    121.9921      6.0620      2.7147      8.1367      8.6181      8.3444      8.0612      7.5063      8.3767      8.8939      9.3185      0.0000    -85.2500
  5533.0000     73.8326    315.6551    122.0651      6.0190      2.7707      7.6441      8.3963      8.3188      8.4024      7.5485      8.2577      8.4606      8.7818      0.0000    -85.2500
  5532.5000     76.1021    313.8539    122.0800      6.1965      2.7110      7.9524      8.7086      8.5068      8.5812      7.5770      8.1890      8.2595      8.9888      0.0000    -84.8700
  5532.0000     79.6162    312.7572    122.0810      6.4839      2.6111      8.4146      9.2429      9.2014      8.9987      7.8920      8.4826      8.8308      9.5658      0.0000    -84.8700
  5531.5000     83.4928    309.5856    122.0400      7.2967      3.1290      9.3535     10.3539     10.6238     10.5617      9.3913     10.0823     10.7650     11.3002      0.0000    -84.8700
  5531.0000     80.9297    294.6577    122.0401      8.7062      4.3631     10.7059     11.6236     12.2544     12.8121     12.2362     13.0525     13.9102     13.9142      0.0000    -84.7500
  5530.5000     79.2008    273.5885    122.3477     10.4695      4.9898     12.6530     13.2625     14.7295     16.0817     16.0638     17.2928     17.8198     17.1008      0.0000    -84.7500
  5530.0000     80.2879    266.4217    122.1853     12.1014      5.0787     14.8246     15.1570     17.4147     19.3907     19.6186     21.2784     21.8251     19.8761      0.0000    -84.7500
  5529.5000     71.9152    265.3764    122.2126     13.2427      5.2912     16.5965     17.0514     19.3982     21.2905     21.4162     23.2825     24.4750     21.9197      0.0000    -85.1200
  5529.0000     60.2233    265.5518    122.0557     13.0479      5.5421     17.0681     17.6084     19.1514     20.4589     20.1032     21.7104     23.2945     21.8136      0.0000    -85.1200
  5528.5000     59.0751    266.1447    122.0811     12.0908      5.5447     16.6149     16.9998     17.8383     18.5494     17.6717     19.0641     20.7331     20.5091      0.0000    -85.1200
  5528.0000     64.3830    266.7864    122.0864     11.2636      4.8926     15.4630     15.9680     16.5642     16.8806     15.7325     17.1614     18.9341     19.0793      0.0000    -85.0000
  5527.5000     69.1560    267.8803    121.9977     10.5945      3.9083     14.3973     14.8620     15.5065     15.6476     14.8427     15.7560     17.5773     17.5719      0.0000    -85.0000
  5527.0000     71.0638    274.9812    122.0057      9.6945      3.5625     13.1355     13.5644     14.0146     14.4265     13.7961     14.3041     15.3113     15.7775      0.0000    -85.0000
  5526.5000     66.1624    295.1268    121.9311      8.3914      3.4159     11.3576     11.6209     11.9496     12.6334     11.7987     12.1422     12.1128     13.4615      0.0000    -85.6200
  5526.0000     64.2367    308.2740    121.8850      7.4333      3.1034     10.1781     10.0101     10.7840     11.2493     10.5368     10.3526      9.9947     11.4547      0.0000    -85.6200
  5525.5000     72.2881    310.9425    121.9918      6.7145      2.8301      9.2311      9.1033      9.5461      9.7738      9.3555      8.5629      8.4801      9.6118      0.0000    -85.6200
  5525.0000     82.3634    312.2065    121.9239      5.9882      2.6122      8.1839      8.5692      8.3137      8.3533      7.7073      6.8855      6.9585      8.3881      0.0000    -85.6200
  5524.5000     85.5480    313.0126    121.8877      5.4194      2.4812      7.3679      7.5340      7.3997      7.3800      6.7194      6.4423      6.2189      8.0593      0.0000    -85.6200
  5524.0000     82.9459    313.7703    122.0282      5.0449      1.8221      6.5873      6.3263      6.1701      6.7099      6.1336      6.1689      5.5836      7.4955      0.0000    -85.6200
