~Version Information
VERS.                      2.0: CWLS Log ASCII Standard - VERSION 2.0
WRAP.                       NO: One line per depth step
~Well Information Block
STRT.FT              8295.5000: START DEPTH
STOP.FT                 1.0000: STOP DEPTH
STEP.FT                -0.5000: STEP
NULL.                -999.2500: NULL VALUE
COMP.          Apex Energy LLC: COMPANY
WELL.            Fatur Pad 10H: WELL
FLD.                 Marcellus: FIELD
LOC.           Lat 40.426716--Long -79.54976: LOCATION
CNTY.              Westmorland: COUNTY
SRVC.          NINE ENERGY SERVICE: SERVICE COMPANY
DATE.          Wed Jun 06 13-47-35 2018: LOG DATE
UWI.           37-129-28930-00-01: UNIQUE WELL ID
STAT.                       Pa: STATE
~Curve Information Block
DEPT.FT            0 000 00 00: Depth
GR.GAPI                      0: Gamma Ray
TT3FT.USEC                   0: 3FT Travel Time
Temp.DEGF                    0: Integral Temperature
AMP3FT.MV                    0: AMP3FT Amplitude
AMP5FT.MV                    0: AMP5FT Amplitude
AMPS1.                       0: AMPS1 Amplitude
AMPS2.                       0: AMPS2 Amplitude
AMPS3.                       0: AMPS3 Amplitude
AMPS4.                       0: AMPS4 Amplitude
AMPS5.                       0: AMPS5 Amplitude
AMPS6.                       0: AMPS6 Amplitude
AMPS7.                       0: AMPS7 Amplitude
AMPS8.                       0: AMPS8 Amplitude
CCL.                         0: Casing Collar Locator
LSPD.FT/MIN                  0: Line Speed
~Parameter Information Block
~A  Depth        GR        TT3FT        Temp       AMP3FT      AMP5FT      AMPS1       AMPS2       AMPS3       AMPS4       AMPS5       AMPS6       AMPS7       AMPS8        CCL         LSPD    
# ...
  1680.5000     33.5255    263.0309     69.5009     34.2598     31.4379     54.8398     57.2515     60.7955     60.8841     57.3112     54.7160     53.4500     53.9262      0.0000   -100.5000
  1680.0000     33.3018    263.1127     69.6541     32.5222     31.0324     53.1179     54.0793     57.0264     56.9124     53.5301     51.8721     51.7989     52.7461      0.0000   -100.5000
  1679.5000     40.4787    263.2847     69.6703     30.8331     29.6334     50.8101     50.9667     53.6676     53.3078     50.1422     49.2572     49.8649     51.1214      0.0000   -100.5000
  1679.0000     41.3268    263.3971     69.6259     29.4425     27.9853     48.5865     48.3158     50.8037     50.9171     47.9011     47.4169     48.0663     49.4707      0.0000   -100.5000
  1678.5000     36.1036    263.3903     69.6470     28.1271     26.2264     46.6065     45.9415     47.5385     48.4376     46.0522     46.1656     46.6764     47.8310      0.0000   -100.5000
  1678.0000     36.6855    263.3405     69.5864     27.4331     24.9728     45.7012     44.7233     45.9155     46.9631     45.1501     45.2688     46.1100     46.9733      0.0000   -100.7500
  1677.5000     38.3284    263.2356     69.7802     26.9871     24.5749     44.9614     44.0909     45.3847     46.3195     44.6142     44.1240     44.8084     46.2719      0.0000   -100.7500
  1677.0000     32.9926    263.2457     69.6770     26.8567     23.5229     44.5485     44.0297     45.5310     46.5293     44.4033     43.4461     43.7030     45.5346      0.0000   -100.7500
  1676.5000     27.8720    263.2770     69.5736     27.2083     22.3948     44.6259     44.3685     45.9672     47.2271     44.8239     43.9220     43.8120     45.4222      0.0000   -100.7500
  1676.0000     24.6174    263.2491     69.6688     26.6967     22.8088     43.4774     43.0456     44.3388     46.1513     44.3414     43.6722     43.2951     44.8587      0.0000   -100.7500
  1675.5000     24.9509    263.2764     69.7404     25.9195     23.9824     42.4701     41.5420     42.6788     44.7979     43.4874     42.7760     42.6385     44.1652      0.0000   -100.7500
  1675.0000     26.3192    263.2329     69.7357     26.1164     24.7861     42.8331     42.0718     43.6396     45.6430     43.8391     42.9967     42.8599     44.4060      0.0000   -100.7500
  1674.5000     24.9965    263.1935     69.5691     27.0546     25.3830     44.3510     43.5469     45.5123     47.5094     45.8258     45.2177     44.4542     45.7949      0.0000   -100.3700
  1674.0000     26.0786    263.0052     69.6143     28.5028     26.3828     46.7452     46.0313     48.8268     50.6100     48.6154     47.9490     46.8141     47.6686      0.0000   -100.3700
  1673.5000     31.6384    262.7964     69.6092     30.1132     27.0661     49.2195     49.3712     53.1551     54.3792     51.4805     50.2975     48.9257     49.4485      0.0000   -100.3700
  1673.0000     33.1671    262.6512     69.6265     31.7217     28.5277     51.5974     52.4692     56.4267     57.5450     54.4533     53.2298     51.3197     51.5709      0.0000   -100.3700
  1672.5000     28.6995    262.5381     69.8194     32.7825     30.3728     53.0677     54.6311     58.3972     59.3182     56.0536     54.6650     52.5439     52.9452      0.0000   -100.3700
  1672.0000     30.6288    262.4960     69.5230     33.3002     30.1413     54.2018     56.3344     59.7198     60.0831     56.3763     54.6886     52.5937     53.2926      0.0000   -100.3700
  1671.5000     34.0207    262.5613     69.7267     33.3166     28.6453     54.8641     57.2987     59.9548     59.7444     55.9678     54.2758     52.2402     53.1661      0.0000   -100.3700
  1671.0000     34.9622    262.6816     69.4630     31.5591     28.1336     52.3055     53.7922     55.6811     55.6184     53.2184     51.5882     49.9800     51.1516      0.0000   -100.3700
  1670.5000     35.0344    262.7228     69.5029     29.1239     27.7346     48.8118     48.3629     49.0740     49.9388     49.4331     48.1894     47.3367     49.0434      0.0000   -100.3700
  1670.0000     36.5862    262.7985     69.6115     27.6593     26.9431     47.1448     45.6732     45.8252     46.7317     46.1217     45.4043     45.6341     47.7487      0.0000   -100.3700
  1669.5000     39.9492    262.8909     69.6335     26.4487     26.8110     45.6203     43.7045     44.0241     44.7555     43.4760     43.0223     44.1681     46.3458      0.0000   -100.1200
  1669.0000     40.0790    263.0316     69.5982     25.8024     25.7891     44.5120     42.8170     43.4395     44.0988     42.4557     41.9924     43.2926     45.5380      0.0000   -100.1200
  1668.5000     40.8075    263.1278     69.5130     26.2607     24.1896     44.8843     43.6414     44.5390     45.5246     43.4280     42.8727     43.9924     46.1769      0.0000   -100.1200
  1668.0000     36.7481    263.2126     69.5137     26.3219     23.2755     44.2652     42.5642     43.8431     45.7090     44.4208     43.9323     44.3567     45.9855      0.0000   -100.2500
  1667.5000     29.2660    263.1683     69.6343     26.4077     23.4104     43.6922     41.9621     43.8269     46.0490     45.1373     44.7192     44.6395     45.7751      0.0000   -100.2500
  1667.0000     25.4004    263.1363     69.7140     26.8365     24.1046     43.6755     42.4251     44.7589     46.9120     45.8059     45.4228     45.0856     45.8759      0.0000   -100.2500
  1666.5000     25.5313    263.0847     69.5413     27.6294     25.0532     44.3232     43.7393     46.2560     48.3881     47.2181     46.7284     45.7887     46.1353      0.0000   -100.2500
  1666.0000     25.0290    263.0168     69.6274     28.9765     24.9859     46.0433     46.5327     49.6290     51.2743     49.5072     48.5920     47.0793     47.1444      0.0000   -100.5000
  1665.5000     26.9933    262.9428     69.6589     29.9847     25.0272     47.6084     48.9809     52.7568     53.8631     51.0022     49.2688     47.5301     47.8686      0.0000   -100.5000
  1665.0000     29.3942    262.9284     69.4884     29.4498     25.7914     47.2963     48.5173     51.4078     52.3843     49.4249     48.0664     46.5957     47.5481      0.0000   -100.5000
  1664.5000     24.8556    263.0706     69.5456     28.3744     26.8872     46.2909     46.5094     47.9648     49.0534     47.0204     46.6311     45.7789     47.1246      0.0000   -100.6200
  1664.0000     24.7401    263.1580     69.6741     27.6069     27.3395     45.7206     44.6488     45.2149     46.7627     46.0823     46.1939     45.6370     47.1722      0.0000   -100.6200
  1663.5000     40.3102    263.1758     69.3158     27.3876     27.0246     45.8125     44.2404     44.3014     46.4444     46.0220     46.4138     45.8883     47.5701      0.0000   -100.6200
  1663.0000     57.1055    263.1955     69.4476     27.6766     26.6577     46.3151     44.7713     45.4746     47.9306     46.9757     46.8197     46.2711     47.9640      0.0000   -100.6200
  1662.5000     59.7798    263.1062     69.6441     28.4219     27.9560     47.2428     46.0694     48.2532     50.6041     49.1154     47.9682     46.9620     48.2828      0.0000   -100.8700
  1662.0000     51.6617    262.9612     69.5018     30.0326     30.8081     49.4272     49.9414     52.9896     54.7848     52.2791     50.4129     48.3389     49.1867      0.0000   -100.8700
  1661.5000     39.8949    262.7928     69.6623     33.1937     33.8013     53.7293     56.7962     60.6540     61.4838     57.7407     54.3845     51.0701     51.6249      0.0000   -100.8700
  1661.0000     30.1084    262.7681     69.6389     37.3405     36.7507     59.4145     65.0138     69.3205     69.6597     64.7240     59.7680     55.1122     55.4938      0.0000   -100.7500
  1660.5000     25.7336    262.9222     69.5681     40.7874     39.9268     63.8034     71.1539     76.2556     76.1335     70.5123     64.8349     59.7653     59.4773      0.0000   -100.7500
  1660.0000     24.6245    262.9778     69.5729     43.0171     42.2508     66.3912     74.4216     80.2247     80.1902     74.0826     68.3481     63.5275     62.7101      0.0000   -100.7500
