~Version Information
VERS.                      2.0: CWLS Log ASCII Standard - VERSION 2.0
WRAP.                       NO: One line per depth step
~Well Information Block
STRT.FT              8295.5000: START DEPTH
STOP.FT                 1.0000: STOP DEPTH
STEP.FT                -0.5000: STEP
NULL.                -999.2500: NULL VALUE
COMP.          Apex Energy LLC: COMPANY
WELL.            Fatur Pad 10H: WELL
FLD.                 Marcellus: FIELD
LOC.           Lat 40.426716--Long -79.54976: LOCATION
CNTY.              Westmorland: COUNTY
SRVC.          NINE ENERGY SERVICE: SERVICE COMPANY
DATE.          Wed Jun 06 13-47-35 2018: LOG DATE
UWI.           37-129-28930-00-01: UNIQUE WELL ID
STAT.                       Pa: STATE
~Curve Information Block
DEPT.FT            0 000 00 00: Depth
GR.GAPI                      0: Gamma Ray
TT3FT.USEC                   0: 3FT Travel Time
Temp.DEGF                    0: Integral Temperature
AMP3FT.MV                    0: AMP3FT Amplitude
AMP5FT.MV                    0: AMP5FT Amplitude
AMPS1.                       0: AMPS1 Amplitude
AMPS2.                       0: AMPS2 Amplitude
AMPS3.                       0: AMPS3 Amplitude
AMPS4.                       0: AMPS4 Amplitude
AMPS5.                       0: AMPS5 Amplitude
AMPS6.                       0: AMPS6 Amplitude
AMPS7.                       0: AMPS7 Amplitude
AMPS8.                       0: AMPS8 Amplitude
CCL.                         0: Casing Collar Locator
LSPD.FT/MIN                  0: Line Speed
~Parameter Information Block
~A  Depth        GR        TT3FT        Temp       AMP3FT      AMP5FT      AMPS1       AMPS2       AMPS3       AMPS4       AMPS5       AMPS6       AMPS7       AMPS8        CCL         LSPD    
# ...
  4977.5000     72.1277    268.1473    114.3458     11.4308      3.9805     15.4142     15.4920     16.5490     17.9622     17.1006     17.9344     18.6918     18.6774      0.0000    -87.0000
  4977.0000     75.9227    266.9848    114.1098     11.9482      3.8772     16.1692     16.6170     17.7375     19.2721     17.7917     18.4382     19.0350     19.1334      0.0000    -87.0000
  4976.5000     75.7653    267.1559    114.2008     11.6435      4.3784     16.0483     16.6052     17.6307     18.9553     17.5082     17.4232     17.9741     18.3472      0.0000    -87.0000
  4976.0000     69.8975    267.2767    113.9350     11.5526      5.4242     16.3763     16.9347     17.8489     18.7147     17.4413     16.6619     17.2566     17.8387      0.0000    -86.8700
  4975.5000     71.8318    266.7912    114.2496     12.0959      5.5434     17.2822     17.5569     18.0792     19.2098     18.5229     18.1460     18.5948     19.0827      0.0000    -86.8700
  4975.0000     84.7456    266.1242    114.2712     12.8223      4.5601     17.9433     17.9410     18.5063     19.8002     19.8099     20.0505     20.7621     20.9123      0.0000    -86.8700
  4974.5000     90.5101    266.3869    114.3212     12.4116      3.9682     16.7384     16.6337     17.5588     19.1822     19.3401     19.7903     20.3238     20.2037      0.0000    -86.6200
  4974.0000     80.9312    267.0725    113.9939     11.6229      4.0101     15.0840     15.6080     16.0885     17.8329     17.9967     18.5039     18.7070     18.8548      0.0000    -86.6200
  4973.5000     71.2310    267.0587    114.1029     11.4644      4.4056     15.5235     16.2339     16.6030     17.9916     17.5981     17.7929     17.8595     18.3042      0.0000    -86.6200
  4973.0000     64.7830    266.7442    114.0371     11.7620      4.5123     16.7415     16.7803     17.6270     18.8046     18.2982     18.1343     17.9979     18.6619      0.0000    -86.8700
  4972.5000     64.6104    266.3950    114.0351     12.2629      4.5171     17.1505     16.6722     17.7298     19.3920     19.6723     19.5165     19.3169     19.6159      0.0000    -86.8700
  4972.0000     72.6597    266.0753    114.0625     12.4535      5.3351     17.2134     16.4837     17.3343     19.4857     19.9687     20.5775     20.5809     20.4950      0.0000    -86.8700
  4971.5000     77.6359    266.1940    114.1227     12.1619      5.9502     17.0779     16.4100     17.2987     19.1110     19.1008     19.9557     20.1543     20.5463      0.0000    -86.5000
  4971.0000     72.5435    265.9568    113.9106     12.5176      6.5650     17.8867     17.3628     18.2519     19.7203     19.4236     19.6650     20.6267     21.1091      0.0000    -86.5000
  4970.5000     63.6611    265.7635    114.1734     12.9504      7.1006     18.7349     18.2467     19.1490     20.3448     20.0492     19.6876     21.1519     21.8260      0.0000    -86.5000
  4970.0000     65.4118    266.8757    114.2405     13.8463      7.1318     20.4332     20.0839     21.1915     21.9671     21.4851     20.9601     22.3401     23.4422      0.0000    -86.8700
  4969.5000     72.3654    269.1295    114.1526     14.6013      7.9753     21.4734     21.5168     23.1069     23.8284     22.9316     22.4740     23.1854     24.1617      0.0000    -86.8700
  4969.0000     70.4885    268.9891    114.1400     15.4268     10.2863     22.5806     22.9830     24.2398     25.3224     24.3119     23.9098     24.2898     25.0919      0.0000    -86.8700
  4968.5000     68.0570    268.6763    113.9550     16.2758     12.1673     24.2873     24.5575     25.2358     26.1421     25.6320     25.5919     26.1329     26.9200      0.0000    -86.7500
  4968.0000     73.2379    268.4309    114.1782     17.2213     11.1374     25.9257     25.3804     25.7759     26.5330     26.9329     27.3583     28.4385     29.3562      0.0000    -86.7500
  4967.5000     72.6252    268.9774    114.1873     17.1894      7.7478     25.3358     24.1463     24.5906     25.0506     26.5030     27.3419     29.3516     30.1096      0.0000    -86.7500
  4967.0000     71.2602    268.1877    114.1509     16.1816      5.4771     25.2154     24.0901     24.3753     24.6099     24.6807     25.8217     28.2080     29.1775      0.0000    -86.8700
  4966.5000     85.7488    265.9649    114.0272     14.5612      5.4309     23.7975     22.4814     22.8422     23.7456     22.1909     23.2272     25.1182     26.4372      0.0000    -86.8700
  4966.0000     91.4963    265.0951    113.9783     13.5139      6.2141     21.5347     20.2866     20.0325     21.5032     20.5657     21.1294     22.0486     23.7816      0.0000    -86.8700
  4965.5000     79.5789    264.9079    114.0681     13.0376      6.4322     20.4895     19.1243     17.8928     19.4698     19.3886     20.5504     21.2756     22.7883      0.0000    -86.8700
  4965.0000     74.4271    265.2993    114.0547     12.3261      6.5892     19.5487     17.2018     15.5781     17.0619     17.8297     20.0669     21.5172     22.6644      0.0000    -86.8700
  4964.5000     77.4718    266.7013    114.1141     10.8869      6.6331     17.1779     14.9347     13.5177     14.8468     15.8100     17.6666     19.3005     20.6564      0.0000    -86.8700
  4964.0000     82.4167    267.2409    114.0028     10.4098      6.0246     16.6290     15.1475     14.5824     15.8684     15.5909     16.5056     17.7297     19.4250      0.0000    -86.8700
  4963.5000     82.1445    266.1331    113.9278     11.3967      5.7431     18.4037     17.2544     17.2611     18.5519     17.5054     18.2018     18.9180     20.7249      0.0000    -86.8700
  4963.0000     72.0129    265.4744    114.0519     12.0521      6.6600     19.1823     18.4507     18.6666     19.9216     19.0593     19.3009     19.3001     21.0054      0.0000    -86.8700
  4962.5000     59.5474    265.1083    114.0773     12.4717      7.6325     19.2323     19.3633     19.6329     20.6638     19.8667     19.7386     19.0024     20.3872      0.0000    -86.8700
  4962.0000     53.5113    264.5627    113.9213     13.4398      7.6565     20.5497     21.1635     21.2361     22.0692     21.1388     21.2046     20.1717     21.3336      0.0000    -86.8700
  4961.5000     58.0252    264.1614    113.8735     14.1194      6.3323     21.8463     22.2550     21.8131     22.2236     21.7171     22.1244     21.8100     22.7863      0.0000    -86.7500
  4961.0000     67.5984    264.9426    114.1827     13.1431      4.8400     20.9608     20.8172     19.6200     19.9055     19.7022     20.3723     20.7102     22.0328      0.0000    -86.7500
  4960.5000     70.6049    272.1232    114.1394     11.0605      4.4282     17.6628     17.2225     15.8259     16.2591     16.4992     17.2520     17.3418     18.7018      0.0000    -86.7500
  4960.0000     73.6048    292.4203    114.0867      9.3072      4.3904     14.4626     14.0957     12.9648     13.5566     13.5583     14.0597     14.0164     15.2062      0.0000    -86.6200
  4959.5000     78.3898    305.9100    113.8834      8.4969      3.5849     13.3242     12.8923     11.5256     11.7968     11.3838     11.9887     12.4346     14.0129      0.0000    -86.6200
  4959.0000     76.5649    308.1052    114.0166      7.5512      2.9892     12.2830     11.4198      9.6406      9.5044      9.2174     10.2162     11.1771     13.0883      0.0000    -86.6200
  4958.5000     78.1950    308.1521    114.0021      6.3177      3.2857     10.1557      9.0266      7.3052      7.2828      7.3413      8.2997      9.1085     10.8540      0.0000    -86.6200
  4958.0000     83.1989    308.3445    114.0798      5.6526      3.0640      8.9508      7.8889      6.4762      6.4825      6.6659      7.4377      7.6301      9.5436      0.0000    -86.6200
  4957.5000     81.1287    308.4825    113.9621      5.8397      2.3052      9.1645      8.3751      7.1893      7.2304      7.1770      7.7960      7.5132      9.8154      0.0000    -86.6200
  4957.0000     72.0137    308.3097    113.9440      6.1517      1.7998      9.5069      8.8491      7.7209      7.9845      7.8869      8.4172      7.9109     10.1415      0.0000    -86.7500
